自治体コード,行番号,都道府県名,市区町村名,営業施設名称、屋号又は商号,営業施設名称、屋号又は商号（フリガナ）,営業の種類,業態,営業施設所在地,営業施設方書,緯度,経度,営業施設電話番号,法人名,法人番号,法人住所,許可番号,初回許可年月日,許可年月日,許可開始日,許可満了日,廃業年月日,申請区分,許可条件,備考
018000,fBiz00000126460000000003,福井県,福井市,敦賀昆布株式会社　キッチンカー,ツルガコンブカブシキカイシャ　キッチンカー,① 飲食店営業,移動店舗(80L),福井県敦賀市五幡３１－５－１,(県下一円),35.709267,136.091232,0770-47-5852,敦賀昆布株式会社,7210001016736,福井県敦賀市公文名１８号２２番地の６,福井県指令二保第2150152号,2021/11/09,2021/11/09,2021/11/09,2026/11/30,,許可,簡易な営業に限る。車両番号：福井　480　す　5098,
018000,fBiz00000157080000000042,福井県,福井市,株式会社バロー　木崎店,バローキザキテン,① 飲食店営業,寿司,福井県敦賀市木崎２０―１２,,35.643200,136.049671,0770244630,株式会社バロー,8200001031520,岐阜県多治見市大針町661-1,福井県指令二保第2150124号,2021/10/07,2021/10/07,2021/10/07,2028/08/31,,許可,なし,
018000,fBiz00000195860000000001,福井県,福井市,マクドナルド敦賀店,マクドナルドツルガテン,① 飲食店営業,飲食店,福井県敦賀市呉竹町1丁目17－17,,35.646370,136.061201,0770221580,有限会社ウィズ,1210002010116,福井県敦賀市蓬莱町9－34－703,福井県指令二保第2150097号,2021/07/07,2021/07/07,2021/07/07,2026/09/30,,許可, ,
018000,fBiz00000209830000000001,福井県,福井市,アル・プラザ敦賀,アル・プラザツルガ,① 飲食店営業,臨時加工場,福井県敦賀市白銀町１１－５,,35.648207,136.071672,0770237771,株式会社平和堂,3160001008726,滋賀県彦根市西今町1番地,福井県指令二保第2150115号,2021/07/28,2021/07/28,2021/07/28,2026/07/31,,許可,営業所で行う臨時営業に限る。年間30日以内の営業に限る。,
018000,fBiz00000209830000000009,福井県,福井市,アル・プラザ敦賀,アル・プラザツルガ,① 飲食店営業,臨時飲食店(仕出し弁当),福井県敦賀市白銀町11-5,,35.648207,136.071672,0770237771,株式会社平和堂,3160001008726,滋賀県彦根市西今町1番地,福井県指令二保第2150176号,2021/12/28,2021/12/28,2021/12/28,2022/01/03,,許可,許可期限ついては、本人の申請のとおりとする。,
018000,fBiz00000209830000000010,福井県,福井市,アル・プラザ敦賀,アル・プラザツルガ,① 飲食店営業,臨時飲食店(仕出し弁当),福井県敦賀市白銀町11-5 3階カルチャー室,,35.648343,136.071970,0770237771,株式会社平和堂,3160001008726,滋賀県彦根市西今町1番地,福井県指令二保第2250007号,2022/02/02,2022/02/02,2022/02/02,2022/02/04,,許可,許可期限については、本人の申請のとおりとする,
018000,fBiz00000229100000000002,福井県,福井市,ふわふわクレープ移動販売車,フワフワクレープイドウハンバイシャ,① 飲食店営業,飲食店営業,福井県大野市蔵生137-21-1,,35.979772,136.487533,0575725031,有限会社まるや石油,5200002028106,岐阜県郡上市高鷲町大鷲41-5,2130067,2021/07/02,2021/07/02,2021/07/02,2026/07/31,,許可,車両番号：岐阜800せ1658　車種：ﾄﾖﾀ　排気量：3.43L,
018000,fBiz00000244430000000002,福井県,福井市,Pasta&Wine1803,パスタアンドワインイチハチゼロサン,① 飲食店営業,,福井県あわら市二面４１－２１－５－５,,36.225950,136.195585,0776-43-9874,関山耕人,,福井県あわら市温泉5丁目1803,坂保第2120070号,2021/06/17,2021/06/17,2021/06/17,2026/10/31,,許可,,
018000,fBiz00000244430000000003,福井県,福井市,ゆのまちホルモン,ユノマチホルモン,① 飲食店営業,焼肉屋,福井県あわら市温泉５―１８０３,,36.228562,136.192864,,関山耕人,,福井県あわら市温泉5丁目1803,坂保第2120146号,2021/12/27,2021/12/27,2021/12/27,2027/10/31,,許可,,
018000,fBiz00000250020000000003,福井県,福井市,マツニタカ,マツニタカ,① 飲食店営業,,福井県敦賀市相生町14番28-2号,,35.656226,136.067971,0776-36-4877,有限会社MS＆Aシステムズ,1210002010132,福井県敦賀市開町5番2号,福井県指令二保第2150087号,2021/06/04,2021/06/04,2021/06/04,2027/09/28,,許可,飲食店営業(食堂),
018000,fBiz00000252810000000003,福井県,福井市,ハーツはるえ,ハーツハルエ,① 飲食店営業,,福井県坂井市春江町随応寺25字1番,,36.133033,136.223648,0776515482,福井県民生活協同組合,1210005000221,福井県福井市開発５丁目１６０３番地,坂保第2120138号,2021/12/23,2021/12/23,2021/12/23,2022/01/03,,許可,,
018000,fBiz00000275320000000001,福井県,福井市,CROP,クロップ,① 飲食店営業,,福井県大野市大野市２－４－１,九頭竜設備株式会社,35.979751,136.487908,,,,,2130059,2021/06/11,2021/06/11,2021/06/11,2026/06/30,,許可,喫茶類・酒類に限る,
018000,fBiz00000276420000000002,福井県,福井市,三国屋善五郎　本店,ミクニヤゼンゴロウ　ホンテン,① 飲食店営業,,福井県坂井市春江町江留中39-13,,36.136672,136.220930,0776-51-5959,株式会社三国屋,1210001007451,福井県坂井市春江町江留中第３９号１３番地,坂保第2120067号,2021/06/10,2021/06/10,2021/06/10,2027/03/31,,許可,　,
018000,fBiz00000287400000000006,福井県,福井市,マックスバリュ九頭龍店,マックズバリュクズリュウテン,① 飲食店営業,,福井県大野市南新在家35-38,,36.012668,136.509383,070-1470-6847,マックスバリュ北陸株式会社,9220001014415,石川県金沢市鞍月４丁目１３３番地ＫＣビル８階,2130066,2021/06/25,2021/06/25,2021/06/25,2027/07/31,,許可,通常,
018000,fBiz00000287400000000007,福井県,福井市,マックスバリュ九頭龍店,マックズバリュクズリュウテン,① 飲食店営業,,福井県大野市南新在家35-38,,36.012668,136.509383,070-1470-6847,マックスバリュ北陸株式会社,9220001014415,石川県金沢市鞍月４丁目１３３番地ＫＣビル８階,2130064,2021/06/25,2021/06/25,2021/06/25,2026/07/31,,許可,通常,
018000,fBiz00000287400000000010,福井県,福井市,マックスバリュ九頭龍店,マックズバリュクズリュウテン,① 飲食店営業,,福井県大野市南新在家35-38,,36.012668,136.509383,070-1470-6847,マックスバリュ北陸株式会社,9220001014415,石川県金沢市鞍月４丁目１３３番地ＫＣビル８階,2130069,2021/07/02,2021/07/02,2021/07/02,2026/07/31,,許可,申請地で行う臨時営業および申請に基づく取扱商品に限る,
018000,fBiz00000287400000000018,福井県,福井市,マックスバリュエクスプレス敦賀中央町店,マックスバリュエクスプレスツルガチュウオウチョウテン,① 飲食店営業,,福井県敦賀市中央町二丁目4番,,35.643353,136.055576,080-7337-2509,マックスバリュ北陸株式会社,9220001014415,石川県金沢市鞍月４丁目１３３番地ＫＣビル８階,福井県指令二保第2150157号,2021/11/19,2021/11/19,2021/11/19,2028/09/30,,許可,なし,
018000,fBiz00000327200000000002,福井県,福井市,是・空　敦賀店,ゼ・クウ　ツルガテン,① 飲食店営業,,福井県敦賀市古田刈31-1-1,,35.632863,136.063139,0770-47-6355,株式会社岩本屋,2210001008457,福井県福井市運動公園１丁目１８０１番地３,福井県指令二保第2150092号,2021/06/25,2021/06/25,2021/06/25,2027/08/31,,許可,　,
018000,fBiz00000330690000000001,福井県,福井市,BISTRO gino,ビストロ　ジーノ,① 飲食店営業,,福井県勝山市沢町２丁目７－２７,ハッピー商店街,36.065299,136.503051,0779-64-4376,,,,2130060,2021/06/18,2021/06/18,2021/06/18,2027/05/30,,許可,通常,
018000,fBiz00000363800000000001,福井県,福井市,福そば 本店,フクソバ　ホンテン,① 飲食店営業,,福井県大野市元町11-4,,35.984874,136.490864,0779662930,有限会社　福そば,6210002009608,福井県大野市元町11-4,2130076,2021/08/06,2021/08/06,2021/08/06,2026/11/30,,許可,通常,
018000,fBiz00000377920000000001,福井県,福井市,高浜まちなか交流館,タカハママチナカコウリュウカン,① 飲食店営業,,福井県大飯郡高浜町三明第１号１９番地１,,35.491391,135.549667,0770-72-3318,高浜町長,3000020184811,福井県大飯郡高浜町宮崎第８６号２３番地２,福井県指令若保第2160078号,2021/07/08,2021/07/08,2021/07/08,2027/05/31,,許可,なし,
018000,fBiz00000392850000000001,福井県,福井市,スナック　麗,スナック　レイ,① 飲食店営業,,福井県勝山市滝波町２丁目３０４－１,,36.073054,136.493581,0779-88-4022,,,,0138584,1990/12/11,2021/06/17,2021/06/17,2026/06/30,,許可,通常,
018000,fBiz00000402340000000001,福井県,福井市,ダイニング&カラオケ　ＧＯＲＡＫＵ　てつぱん,ダイニングアンドカラオケ　ゴラク　テツパン,① 飲食店営業,,福井県勝山市滝波町２－１１９,,36.073981,136.493295,0779-88-0929,株式会社　ＧＯＲＡＫＵ,6210002010012,福井県勝山市滝波町２－１１９,1630050,2016/06/20,2021/06/17,2021/06/17,2026/06/30,,許可,通常,
018000,fBiz00000402340000000002,福井県,福井市,クレープＭＯＫＫＡ,クレープモッカ,① 飲食店営業,キッチンカー,福井県勝山市滝波町２－１１９,,36.073981,136.493295,0779-88-0929,株式会社　ＧＯＲＡＫＵ,6210002010012,福井県勝山市滝波町２－１１９,2130102,2022/01/21,2022/01/21,2022/01/21,2027/01/31,,許可,車両番号　福井483い902,
018000,fBiz00000414190000000003,福井県,福井市,AINA　kitchen,アイナキッチン,① 飲食店営業,飲食業,福井県大飯郡高浜町和田103－39－1,,35.489575,135.567050,09087573050,松永陽太,,京都府京都市中京区西ノ京東中合町9番地,福井県指令若保第2160082号,2021/07/08,2021/07/08,2021/07/08,2026/07/31,,許可,なし,
018000,fBiz00000421380000000002,福井県,福井市,Rapture,ラプチャー,① 飲食店営業,,福井県敦賀市本町1丁目9-15,UPビル2階,35.653317,136.073451,0770-23-4488,岡田かなめ,,福井県敦賀市公文名22－58－1,福井県指令二保第2150089号,2021/06/11,2021/06/11,2021/06/11,2027/03/31,,許可, ,
018000,fBiz00000423390000000001,福井県,福井市,ヤスマ食品,ヤスマショクヒン,① 飲食店営業,,福井県大野市千歳５－１１,,35.954626,136.497920,,,,,2130068,2021/06/29,2021/06/29,2021/06/29,2026/06/30,,許可,たこ焼き・ベビーカステラに限る,
018000,fBiz00000428100000000008,福井県,福井市,麵屋はっさく,メンヤハッサク,① 飲食店営業,,福井県三方上中郡若狭町井ノ口２９－33,,35.463639,135.852284,,青山淳也,,福井県三方上中郡若狭町井ノ口２９－３３,福井県指令若保第2160074号,2021/06/29,2021/06/29,2021/06/29,2026/11/30,,許可,なし,
018000,fBiz00000431590000000001,福井県,福井市,光風湯圃　べにや,コウフウユデン　ベニヤ,① 飲食店営業,,福井県あわら市温泉4-510,,36.225225,136.192735,,株式会社べにや旅館,7210001007272,福井県あわら市温泉4-510,坂保第2120077号,2021/07/08,2021/07/08,2021/07/08,2026/07/08,,許可,　,
018000,fBiz00000446840000000003,福井県,福井市,（有）しぶや食品,ユウゲンカイシャ　シブヤショクヒン,① 飲食店営業,,福井県大野市陽明町3-907,,35.990958,136.496739,0779662495,（有）しぶや食品,5210002009476,福井県大野市陽明町3丁目907,9838104,1995/07/19,2021/07/14,2021/07/14,2027/07/31,,許可,通常,
018000,fBiz00000454050000000005,福井県,福井市,ＡＵＢＥ,オーブ,① 飲食店営業,,福井県大野市大和町３－３４,五井ビルⅠ室,35.984594,136.493304,,,,,2130071,2021/07/19,2021/07/19,2021/07/19,2026/11/30,,許可,通常,
018000,fBiz00000458980000000001,福井県,福井市,ドットピンク,ドットピンク,① 飲食店営業,浜茶屋,福井県敦賀市櫛川41号-3-1,花城海水浴場内,35.657933,136.044032,0770-47-5274,株式会社シービー,9210001011058,福井県三方郡美浜町佐田44-1-1,福井県指令二保第2150093号,2021/06/18,2021/06/18,2021/06/18,2026/08/31,,許可,　,
018000,fBiz00000460820000000001,福井県,福井市,片岡　英雄,カタオカ　ヒデオ,① 飲食店営業,,福井県大野市神明町１１１０番地,ハニー新鮮館　こぶし通り店前,35.977346,136.501639,,,,,1630057,2016/06/30,2021/06/29,2021/06/29,2026/06/30,,許可,申請地で行う臨時営業および申請に基づく取扱食品に限る,
018000,fBiz00000460820000000002,福井県,福井市,片岡　英雄,カタオカ　ヒデオ,① 飲食店営業,,福井県大野市中荒井１丁目７２７,ハニー新鮮館　三番通り店前,35.991679,136.491616,,,,,1137111,2011/06/28,2021/06/29,2021/06/29,2026/06/30,,許可,申請地で行う臨時営業および申請に基づく取扱食品に限る,
018000,fBiz00000469120000000001,福井県,福井市,AkinChi,アキンチ,① 飲食店営業,社交飲食,福井県敦賀市本町1丁目1-15,藤村ビル1F,35.653702,136.073992,080-1963-8798,山川陽子,,福井県敦賀市新松島町１５－２０,福井県指令二保第2150090号,2021/06/24,2021/06/24,2021/06/24,2027/03/31,,許可,　,
018000,fBiz00000470680000000001,福井県,福井市,台湾料理　中国飯店,タイワンリョウリ　チュウゴクハンテン,① 飲食店営業,中華料理,福井県小浜市駅前町7-22,,35.492338,135.745788,0770-52-2205,麗徳有限会社,6160002007773,滋賀県彦根市後三条町621番地の１,福井県指令若保第2160076号,2021/07/08,2021/07/08,2021/07/08,2027/03/31,,許可,なし,
018000,fBiz00000476550000000001,福井県,福井市,もでな。,モデナ,① 飲食店営業,露店,福井県敦賀市県下一円,,35.632526,136.067842,090-2385-6250,山田秀信,,滋賀県長浜市木之本町黒田１０２６―１３,福井県指令二保第1650091号,2016/06/02,2021/06/28,2021/06/28,2026/06/30,,許可,かき氷、タピオカドリンクに限る,
018000,fBiz00000476580000000001,福井県,福井市,シーハウス26,シーハウスニジュウロク,① 飲食店営業,露店,福井県敦賀市色浜2-8,(県下一円),35.725085,136.025335,080-3070-1654,瀧本寛美,,愛知県尾張旭市柏井町公園通454-2,福井県指令二保第2150095号,2021/06/22,2021/06/22,2021/06/22,2026/06/30,,許可,チヂミ、かき氷に限る,
018000,fBiz00000476810000000001,福井県,福井市,寺川荘,テラカワソウ,① 飲食店営業,旅館,福井県敦賀市川崎町３―２４,,35.656240,136.065207,0770-21-2622,株式会社Y・キューブ,1210001011338,福井県敦賀市泉ケ丘町６―２,福井県指令二保第2150094号,2021/06/30,2021/06/30,2021/06/30,2027/09/30,,許可,なし,
018000,fBiz00000481800000000001,福井県,福井市,ミルク工房　まきばの里,ミルクコウボウ　マキバノサト,① 飲食店営業,,福井県勝山市旭町３丁目１０９番地,,36.048744,136.514791,0779-87-6187,,,,0538527,2000/07/11,2021/07/14,2021/07/14,2027/07/31,,許可,通常,
018000,fBiz00000492400000000001,福井県,福井市,お好み焼　ひろの　,オコノミヤキヒロノ　,① 飲食店営業,,福井県大野市陽明町１丁目303,,35.988758,136.497626,0779664546,,,,1530103,2015/12/21,2021/07/14,2021/07/14,2026/07/31,,許可,通常,
018000,fBiz00000493480000000001,福井県,福井市,VIDA　LA　Sing　PUB,ビダ　ラ　シン　パブ,① 飲食店営業,社交飲食,福井県小浜市小浜竜田１５―１,,35.494331,135.742670,090-2374-4826,OKIETHEL JANE UY,,福井県小浜市青井９―５６―２,福井県指令若保第2160079号,2021/07/16,2021/07/16,2021/07/16,2027/03/31,,許可,なし,
018000,fBiz00000500930000000005,福井県,福井市,ジェラート　トリノ　イーザ店,ジェラートトリノイーザテン,① 飲食店営業,製菓製造販売,福井県坂井市三国町三国東5丁目1-20,,36.210620,136.159202,0776828236,平井祐一,,福井県坂井市三国町緑が丘5丁目2-7,坂保第2120083号,2021/07/27,2021/07/27,2021/07/27,2026/07/31,,許可,　,
018000,fBiz00000529830000000001,福井県,福井市,浜茶屋OASIS,ハマヂャヤオアシス,① 飲食店営業,,福井県大飯郡高浜町和田３区　海岸,,35.482330,135.574739,090-5173-2946,岡本真斉,,福井県大飯郡高浜町青戸１―１―１０２,福井県指令若保第2160081号,2021/07/12,2021/07/12,2021/07/12,2027/06/30,,許可,なし,
018000,fBiz00000538870000000001,福井県,福井市,らーめん虹　屋台,ラーメンニジ　ヤタイ,① 飲食店営業,移動店舗(40L),福井県三方郡美浜町金山37-28,,35.601027,135.927138,070-8555-2110,小堀文英,,福井県三方上中郡若狭町鳥浜49-4,福井県指令二保第2150100号,2021/07/01,2021/07/01,2021/07/01,2026/07/31,,許可,簡易な営業に限る。車両番号：福井 483 く 1000,
018000,fBiz00000553100000000001,福井県,福井市,Sea of JAPAN 彩波,シーオブジャパン　イロハ,① 飲食店営業,,福井県敦賀市若葉町1-1531,日本海さかな街,35.634680,136.049913,090-2831-7324,今村裕一,,福井県敦賀市古田刈66-112,福井県指令二保第2150096号,2021/07/01,2021/07/01,2021/07/01,2026/07/31,,許可, ,
018000,fBiz00000553120000000002,福井県,福井市,スキージャム勝山バーベキュー場,スキージャムカツヤマバーベキュージョウ,① 飲食店営業,,福井県勝山市17070,,36.072932,136.555954,0779876109,,,,2130072,2021/07/19,2021/07/19,2021/07/19,2026/10/31,,許可,通常,
018000,fBiz00000553120000000003,福井県,福井市,ラウンジ　シャルム,ラウンジ　シャルム,① 飲食店営業,,福井県勝山市片瀬町2-114,勝山ニューホテル,36.050264,136.514696,0779882110,東急リゾーツ＆ステイ株式会社,6011001037181,東京都渋谷区道玄坂１丁目２１番１号,1630023,2016/03/25,2021/09/15,2021/09/15,2026/09/30,,許可,通常,
018000,fBiz00000553120000000004,福井県,福井市,jamba,ジャンバ,① 飲食店営業,飲食店営業,福井県勝山市170-70,,36.073404,136.555405,0779-87-6109,東急リゾーツ＆ステイ株式会社,6011001037181,東京都渋谷区道玄坂１丁目２１番１号,2130090,2021/12/17,2021/12/17,2021/12/17,2027/01/31,,許可,通常,
018000,fBiz00000553240000000001,福井県,福井市,Calme,カルム,① 飲食店営業,移動店舗(60L),福井県敦賀市白木１-435-1,,35.729271,135.977094,0770-36-4512,坂本勉,,福井県敦賀市白木1-35,福井県指令二保第2150101号,2021/07/02,2021/07/02,2021/07/02,2026/07/31,,許可,簡易な営業に限る。車両番号：福井 800 す 1044,
018000,fBiz00000556750000000002,福井県,福井市,台湾料理　シキコー,タイワンリョウリ　シキコー,① 飲食店営業,,福井県大野市月美町５－１９,,35.986996,136.499714,0779-66-7066,,,,1630027,2016/03/25,2021/07/14,2021/07/14,2026/07/31,,許可,通常,
018000,fBiz00000558150000000002,福井県,福井市,株式会社かじ惣　リブレ店,カブシキカイシャ　リブレテン,① 飲食店営業,,福井県大野市月美町4-6,,35.986838,136.498656,,株式会社かじ惣,8210001009755,福井県大野市中荒井町１丁目1001,1530040,2015/06/24,2021/07/14,2021/07/14,2027/07/31,,許可,通常,
018000,fBiz00000558150000000003,福井県,福井市,株式会社かじ惣　　リブレ店,カブシキガイシャカジソ　リブレテン,① 飲食店営業,,福井県大野市月美町4-6,,35.986838,136.498656,,株式会社かじ惣,8210001009755,福井県大野市中荒井町１丁目1001,1530045,2015/06/24,2021/07/14,2021/07/14,2027/07/31,,許可,通常,
018000,fBiz00000561000000000001,福井県,福井市,Boo Boo Sandwhiches,ブー　ブー　サンドウィッチーズ,① 飲食店営業,移動販売,福井県小浜市学園町1-1,,35.511132,135.759095,0770531160,有限会社タカノ,3210002014271,福井県小浜市学園町１番地の１,福井県指令若保第2160088号,2021/07/16,2021/07/16,2021/07/16,2026/07/31,,許可,なし,
018000,fBiz00000563900000000001,福井県,福井市,ログカフェ　フランボワーズ,ログカフェ　フランボワーズ,① 飲食店営業,喫茶,福井県大野市中津川２３－１９－２,,36.001370,136.499988,0779-65-5848,,,,0037068,2000/08/10,2021/07/14,2021/07/14,2026/09/30,,許可,通常,
018000,fBiz00000572860000000001,福井県,福井市,MaMayakitcheｎ,ママヤキッチン,① 飲食店営業,食堂,福井県大野市清和町204,,35.987096,136.502087,08089954030,,,,1530100,2015/12/16,2021/07/14,2021/07/14,2026/07/31,,許可,通常,
018000,fBiz00000573980000000001,福井県,福井市,Cafe　Seasons,カフェ　シーズンズ,① 飲食店営業,カフェ,福井県小浜市未選択１１１―１,,35.495092,135.741578,070-2676-8051,太田直哉,,福井県小浜市上田７３―１０,福井県指令若保第2160083号,2021/07/16,2021/07/16,2021/07/16,2028/03/31,,許可,なし,
018000,fBiz00000574130000000001,福井県,福井市,麺や　天晴,メンヤ　アッパレ,① 飲食店営業,ラーメン屋,福井県大飯郡高浜町鐘寄１２―１３,,35.489157,135.531590,090-3108-6127,芝野雅宏,,京都府舞鶴市大波下９３５―１,福井県指令若保第2160085号,2021/07/19,2021/07/19,2021/07/19,2027/05/31,,許可,なし,
018000,fBiz00000574230000000001,福井県,福井市,縁,ユカリ,① 飲食店営業,露店,福井県小浜市東市場３８―７,,35.478643,135.793410,0770-56-3066,株式会社　縁,7210001015060,福井県小浜市東市場３８―１７,福井県指令若保第2160087号,2021/08/02,2021/08/02,2021/08/02,2026/11/30,,許可,かき氷、喫茶類（調整品）に限る,
018000,fBiz00000574230000000003,福井県,福井市,YUKARI　FOOD　TRUCK,ユカリ　フード　トラック,① 飲食店営業,移動店舗,福井県小浜市東市場３８―１７,,35.478200,135.793688,0770-56-3066,株式会社　縁,7210001015060,福井県小浜市東市場３８―１７,福井県指令若保第2260001号,2022/01/18,2022/01/18,2022/01/18,2027/01/31,,許可,なし,
018000,fBiz00000585450000000001,福井県,福井市,飛田商店,ヒダショウテン,① 飲食店営業,露店,福井県敦賀市色浜2-8,(県下一円),35.725085,136.025335,090-4867-1227,飛田寛之,,愛知県尾張旭市平子町西149,福井県指令二保第2150104号,2021/07/06,2021/07/06,2021/07/06,2026/07/31,,許可,トッポギ、焼そばに限る。,
018000,fBiz00000587340000000001,福井県,福井市,泉谷商店,イズミタニショウテン,① 飲食店営業,露店,福井県敦賀市色浜2-8,(県下一円),35.725085,136.025335,090-9832-2400,泉谷龍太郎,,神奈川県相模原市緑区二本松4-24-29,福井県指令二保第2150105号,2021/07/06,2021/07/06,2021/07/06,2026/07/31,,許可,喫茶類（調整品）、酒類（調整品）に限る。,
018000,fBiz00000592130000000001,福井県,福井市,レストラン　たかは,レストラン　タカハ,① 飲食店営業,レストラン,福井県大野市月美町６－１４,,35.985902,136.499787,0779-66-5823,,,,9732026,1973/03/02,2021/07/14,2021/07/14,2026/07/31,,許可,通常,
018000,fBiz00000592630000000001,福井県,福井市,お好み焼きハウス　ぽぱい,オコノミヤキハウス　ポパイ,① 飲食店営業,,福井県大野市中挾３丁目２０１,,35.994433,136.501674,,,,,9632162,1987/09/24,2021/07/14,2021/07/14,2026/07/31,,許可,通常,
018000,fBiz00000597400000000003,福井県,福井市,惣菜けんちゃん,ソウザイケンチャン,① 飲食店営業,,福井県勝山市旭町１丁目５－８,,36.056723,136.508763,0779-88-0859,,,,1630080,2016/09/27,2021/07/14,2021/07/14,2026/07/31,,許可,通常,
018000,fBiz00000607480000000001,福井県,福井市,荒島テラス（移動販売車）,アラシマテラス　イドウハンバイシャ,① 飲食店営業,,福井県大野市朝日前坂27,,35.944689,136.716425,0779782711,福井和泉リゾート株式会社,1210001010240,福井県大野市朝日前坂27-5-3,2130074,2021/08/03,2021/08/03,2021/08/03,2026/08/31,,許可,車両番号：福井８８０あ８７２　車種：スバルサンバー　排気量：０．６５L,
018000,fBiz00000618520000000001,福井県,福井市,久留美寿司,クルミスシ,① 飲食店営業,,福井県大野市美里町６１２,,35.983797,136.503417,0779-66-2022,,,,9632200,1978/10/21,2021/07/14,2021/07/14,2026/07/31,,許可,通常,
018000,fBiz00000618950000000001,福井県,福井市,一,イチ,① 飲食店営業,居酒屋,福井県敦賀市清水町1丁目19-2,森口ビル101号室,35.653303,136.075753,090-6812-1469,有限会社矢組,2210002011402,福井県敦賀市新和町1丁目14-9,福井県指令二保第2150098号,2021/07/07,2021/07/07,2021/07/07,2027/03/31,,許可, ,
018000,fBiz00000636200000000002,福井県,福井市,割烹　杉,カッポウ　スギ,① 飲食店営業,,福井県大野市有明町２１－２０,,35.981442,136.503114,0779-65-1881,,,,9632161,1978/09/21,2021/07/14,2021/07/14,2026/07/31,,許可,通常,
018000,fBiz00000639270000000001,福井県,福井市,有限会社　めん工房　木瀬家,ユウゲンガイシャ　メンコウボウ　キセヤ,① 飲食店営業,,福井県大野市中荒井町１－８０４,,35.990621,136.491709,0779-66-4513,有限会社　めん工房　木瀬家,8210002009663,福井県大野市中荒井町１－８０４,9736741,1988/06/06,2021/07/14,2021/07/14,2026/07/31,,許可,通常,
018000,fBiz00000640380000000001,福井県,福井市,食・しすい,ショク・シスイ,① 飲食店営業,,福井県大野市中野５６－１－１,,35.999982,136.496109,0779-66-7000,社会福祉法人　紫水の郷,7210005005958,福井県大野市中野５６－１－１,0537046,2005/12/02,2021/07/14,2021/07/14,2027/07/31,,許可,通常,
018000,fBiz00000642510000000001,福井県,福井市,大野市健康保養施設　あっ宝んど,オオノシケンコウホヨウシセツ　アッタカランド,① 飲食店営業,,福井県大野市南新在家２６－１０１,,36.012325,136.512928,0779-66-7900,イワシタ物産株式会社,1210001008094,福井県福井市円成寺町１－６,0637008,2006/03/28,2021/07/14,2021/07/14,2026/07/31,,許可,通常,
018000,fBiz00000643200000000001,福井県,福井市,チェリー喫茶,チェリーキッサ,① 飲食店営業,,福井県大野市月美町５番９号,,35.987516,136.499176,0779-66-1169,,,,0037007,2000/02/28,2021/07/14,2021/07/14,2026/07/31,,許可,通常,
018000,fBiz00000646430000000001,福井県,福井市,BAR　Ace,バー　エース,① 飲食店営業,,福井県大野市弥生町7番20号,サミットビル2,35.980764,136.496369,,,,,2130078,2021/08/13,2021/08/13,2021/08/13,2026/11/30,,許可,通常,
018000,fBiz00000647490000000001,福井県,福井市,阿さひ旅館,アサヒリョカン,① 飲食店営業,,福井県大野市錦町5-12,,35.985982,136.493050,0779-66-2075,酒井洋子,,福井県大野市錦町５番１２号,9736811,1985/08/13,2021/11/16,2021/11/16,2026/11/30,,許可,通常,
018000,fBiz00000651270000000001,福井県,福井市,里乃寿し,サトノスシ,① 飲食店営業,,福井県大野市陽明町１－５１２,,35.988910,136.495410,0779-66-4740,,,,9736701,1988/04/23,2021/07/14,2021/07/14,2026/07/31,,許可,通常,
018000,fBiz00000653380000000001,福井県,福井市,ＤＵＣＫ　ＤＩＶＥ,ダックダイブ,① 飲食店営業,移動販売,福井県敦賀市　県下一円　営業所　910-0005　福井県福井市大手３－１１,,36.064896,136.219434,080-6126-0416,原睦己,,岐阜県可児市下切３２７５－１,福井県指令二保第2150108号,2021/07/13,2021/07/13,2021/07/13,2026/07/31,,許可,簡易な営業に限る。車両番号：一宮 830 さ 623,
018000,fBiz00000663330000000001,福井県,福井市,ＣＨＩＬＬ　ＯＵＴ　ＢＡＲ　ＭＯＣＭＯＣ,チルアウトバーモクモク,① 飲食店営業,BAR,福井県敦賀市本町１丁目５－２８,エスペランスビル２階,35.652016,136.074662,080-2958-3013,河本魁真,,福井県敦賀市東洋町８丁目２－４０５,福井県指令二保第2150103号,2021/07/15,2021/07/15,2021/07/15,2027/03/31,,許可, ,
018000,fBiz00000664230000000001,福井県,福井市,muusha,ムーシャ,① 飲食店営業,キッチンカー（移動店舗）給水タンク200L　排水タンク200L,福井県三方郡美浜町竹波,,35.697682,135.989607,0568-90-3330,㈱エネテクトレーディング,3180001112377,愛知県西春日井郡豊山町大字豊場字野田94番地,福井県指令二保第2150118号,2021/08/06,2021/08/06,2021/08/06,2026/08/31,,許可,簡易な調理に限る。車両番号：尾張小牧 800 せ 6373,
018000,fBiz00000668750000000001,福井県,福井市,ニューカドヤ,ニューカドヤ,① 飲食店営業,食堂、テイクアウト,福井県敦賀市三島町１丁目９－１４,,35.650143,136.064201,0770-24-3030,山下雅代,,福井県敦賀市三島町１丁目９－１４,福井県指令二保第2150109号,2021/07/16,2021/07/16,2021/07/16,2027/09/30,,許可, ,
018000,fBiz00000672260000000001,福井県,福井市,喫茶コロコロ,キッサコロコロ,① 飲食店営業,,福井県大野市水落町５－１２,,35.990851,136.486439,0779-65-2738,,,,9632248,1993/12/01,2021/07/14,2021/07/14,2026/07/31,,許可,通常,
018000,fBiz00000672570000000002,福井県,福井市,ルーチェ,ルーチェ,① 飲食店営業,,福井県勝山市猪野13-4-4,,36.044087,136.515168,,,,,2130079,2021/08/13,2021/08/13,2021/08/13,2026/09/30,,許可,通常,
018000,fBiz00000672620000000001,福井県,福井市,珈琲専門店　香林堂,コーヒーセンモンテン　コウリンドウ,① 飲食店営業,,福井県大野市中挾３－８２３,,35.993496,136.499753,0779-66-2694,,,,9736786,1991/07/10,2021/07/14,2021/07/14,2026/07/31,,許可,通常,
018000,fBiz00000673200000000001,福井県,福井市,８番ラーメン大野店,ハチバンラーメンオオノテン,① 飲食店営業,,福井県大野市陽明町３丁目６０７,,35.991442,136.499312,0779-65-1858,有限会社　ヨウメイ,2210002009693,福井県大野市陽明町３丁目６０７,9838132,1986/09/13,2021/07/14,2021/07/14,2026/07/31,,許可,通常,
018000,fBiz00000673640000000001,福井県,福井市,めん工房　きふね,メンコウボウ　キフネ,① 飲食店営業,,福井県勝山市旭町２丁目７５５,,36.052002,136.513199,0779-87-2788,,,,0138609,1993/10/19,2021/07/14,2021/07/14,2026/07/31,,許可,通常,
018000,fBiz00000674140000000001,福井県,福井市,六ぷく,ロップク,① 飲食店営業,,福井県勝山市昭和町１－６－５７,,36.061050,136.506688,0779-88-0629,,,,0138611,1993/08/04,2021/07/14,2021/07/14,2026/07/31,,許可,通常,
018000,fBiz00000674700000000001,福井県,福井市,セピア,セピア,① 飲食店営業,,福井県大野市中挾３丁目１１０２,,35.992643,136.501205,0779-65-1429,,,,1037086,2010/12/17,2021/07/14,2021/07/14,2026/07/31,,許可,通常,
018000,fBiz00000677450000000001,福井県,福井市,Lucy's　mash　burger,ルーシーズ　マッシュ　バーガー,① 飲食店営業,,福井県大野市中挾２０－４－１,,35.988819,136.504369,0779-64-5035,,,,1630018,2016/03/02,2021/07/14,2021/07/14,2026/07/31,,許可,通常,
018000,fBiz00000686880000000001,福井県,福井市,六間星山,ロッケンホシヤマ,① 飲食店営業,,福井県大野市元町１３－２,,35.984143,136.491913,0779-66-4536,有限会社　ソンサン商店,3130002018140,福井県福井市荒木新保町８３－１３,0337043,2003/08/29,2021/11/16,2021/11/16,2026/11/30,,許可,通常,
018000,fBiz00000694760000000002,福井県,福井市,TAKASAGOBASE　みちかけ,タカサゴベース　ミチカケ,① 飲食店営業,,福井県大野市土打２－１８,,35.991163,136.552178,,,,,2130080,2021/08/13,2021/08/13,2021/08/13,2026/12/31,,許可,通常,
018000,fBiz00000699120000000001,福井県,福井市,ボンバン,ボンバン,① 飲食店営業,移動店舗 80L,福井県三方郡美浜町竹波,,35.697682,135.989607,090-4466-8455,株式会社クロノス,6180001130855,愛知県名古屋市名東区藤森西町1104,福井県指令二保第2150111号,2021/07/21,2021/07/21,2021/07/21,2026/07/31,,許可,簡易な営業に限る。車両番号：岐阜 100 た 3593,
018000,fBiz00000703860000000004,福井県,福井市,Aコープジェスタイーザ店創業祭,エーコープジェスタイーザテンソウギョウサイ,① 飲食店営業,,福井県坂井市三国町三国東５丁目1-20,イーザ店屋上,36.210620,136.159202,0776-82-3131,株式会社フード三国,7210001007413,福井県坂井市三国町三国東５―１―２０,坂保第1620138号,2016/11/11,2021/10/15,2021/10/15,2026/10/31,,許可,年間３０日に限る,
018000,fBiz00000713580000000001,福井県,福井市,ＳＨＯのキッチンカー,ショウノキッチンカー,① 飲食店営業,移動店舗　80L,福井県三方郡美浜町竹波　水晶浜,,35.684857,135.978123,090-6612-1558,浦上昇也,,愛知県大府市森岡町１丁目１１８,福井県指令二保第2150113号,2021/07/27,2021/07/27,2021/07/27,2026/07/31,,許可,簡易な調理に限る。車両番号：名古屋 100 て 4252,
018000,fBiz00000721330000000002,福井県,福井市,marQ coffee,マルクコーヒー,① 飲食店営業,移動販売（40L）,福井県敦賀市野坂69-25-1,,35.615954,136.032355,0770364047,久永香代子,,福井県敦賀市野坂69-25-1,福井県指令二保第2150122号,2021/09/02,2021/09/02,2021/09/02,2026/09/30,,許可,簡易な営業に限る。車両番号：福井 480 す 4802,
018000,fBiz00000731340000000001,福井県,福井市,Cafe koyama,カフェ　コヤマ,① 飲食店営業,露店,福井県三方上中郡若狭町熊川１１―１―１,,35.441021,135.905883,080-3865-8001,小山智弘,,滋賀県大津市和邇春日１丁目８７８―２１,	 福井県指令若保第2160091号,2021/08/13,2021/08/13,2021/08/13,2026/11/30,,許可,喫茶類（調整品）に限る。,
018000,fBiz00000769310000000003,福井県,福井市,tuzu,ツヅ,① 飲食店営業,カフェ,福井県敦賀市神楽町1丁目4-8,,35.654180,136.071514,0770361906,田中圭允,,福井県敦賀市呉竹町１丁目２−８,福井県指令二保第2250033号,2022/03/16,2022/03/16,2022/03/16,2027/09/30,,許可, ,
018000,fBiz00000776240000000002,福井県,福井市,ぽっぽ茶屋ほっとむら,ポッポチャヤホットムラ,① 飲食店営業,,福井県三方上中郡若狭町井崎37-17,,35.519696,135.898027,090-7084-9920,一般社団法人とむら,2210005009889,福井県三方上中郡若狭町井崎37-17,福井県指令二保第2150188号,2022/02/08,2022/02/08,2022/02/08,2028/11/30,,許可,なし,
018000,fBiz00000779280000000001,福井県,福井市,渓流,ケイリュウ,① 飲食店営業,,福井県大野市朝日２６－４５－１,,35.903652,136.660705,0779-78-2055,,,,9632230,1984/11/30,2021/10/12,2021/10/12,2026/10/31,,許可,通常,
018000,fBiz00000806190000000001,福井県,福井市,野中屋魚店,ノナカヤウオテン,① 飲食店営業,,福井県大野市稲郷４３－１－７,,35.949760,136.523388,0779-64-1341,,,,9736823,1979/08/25,2021/09/15,2021/09/15,2026/09/30,,許可,通常,
018000,fBiz00000806630000000001,福井県,福井市,玉乃家支店,タマノヤシテン,① 飲食店営業,,福井県大野市稲郷５３－７,,35.947081,136.524592,0779-65-1213,,,,9736859,1988/09/29,2021/09/15,2021/09/15,2026/09/30,,許可,通常,
018000,fBiz00000817880000000003,福井県,福井市,きっちょんどん,キッチョンドン,① 飲食店営業,自動車営業,福井県坂井市三国町嵩26-112,,36.231795,136.157085,0776-82-8828,株式会社きっちょんどん,4210001009635,福井県坂井市三国町嵩２６－１１２,坂保1620110号,2016/09/15,2021/09/29,2021/09/29,2026/09/30,,許可,　,
018000,fBiz00000820190000000001,福井県,福井市,T-Factory,ティーファクトリー,① 飲食店営業,移動店舗,福井県小浜市山王前２丁目ー５―３,,35.510184,135.755837,0770-52-9150,上野貴義,,福井県三方上中郡若狭町下野木１１―９―５,福井県指令若保第2160093号,2021/08/27,2021/08/27,2021/08/27,2026/08/31,,許可,なし,
018000,fBiz00000821740000000001,福井県,福井市,fandining,ファンダイニング,① 飲食店営業,,福井県坂井市春江町藤鷲塚４０―３０,,36.141512,136.220210,090-9760-7734,宮腰直秀,,福井県坂井市春江町随応寺９―１１―１,坂保第2120090号,2021/09/10,2021/09/10,2021/09/10,2027/03/31,,許可,　,
018000,fBiz00000827480000000002,福井県,福井市,福井鉄道株式会社　嶺南営業所,フクイテツドウカブシキガイシャ　レイナンエイギョウショ,① 飲食店営業,レストランバス,福井県敦賀市中44-21-3,,35.641848,136.085322,0770-22-1317,福井鉄道株式会社,2210001011931,福井県越前市北府2丁目5番20号,福井県指令二保第2150143号,2021/10/21,2021/10/21,2021/10/21,2026/10/31,,許可,車両番号：福井 200 か 1113　,
018000,fBiz00000828250000000001,福井県,福井市,sparffle,スパーフル,① 飲食店営業,移動店舗 (80L),福井県敦賀市県下一円,,35.632526,136.067842,0749526194,藤居学,,滋賀県米原市高溝２７５―７,福井県指令二保第2150121号,2021/08/26,2021/08/26,2021/08/26,2026/08/31,,許可,簡易な営業に限る。車両番号：滋賀 100 せ 3182,
018000,fBiz00000832510000000001,福井県,福井市,居酒屋　笑吉,イザカヤ　ショウキチ,① 飲食店営業,居酒屋,福井県敦賀市白銀町5-22,白銀ビル2階,35.646052,136.074113,0770-47-5509,有限会社フラワーフーズコーポレーション,7210002011190,福井県敦賀市古田刈６７号７０３番地の３,福井県指令二保第2150129号,2021/10/01,2021/10/01,2021/10/01,2028/03/31,,許可,なし,
018000,fBiz00000836000000000002,福井県,福井市,レストラン幸福駅,コウフクエキ,① 飲食店営業,飲食店,福井県勝山市片瀬町2－120,,36.049494,136.515162,0779884200,下川俊夫,,福井県勝山市片瀬町2－119,0138638,1987/04/27,2021/09/15,2021/09/15,2026/09/30,,許可,通常,
018000,fBiz00000853550000000004,福井県,福井市,jjplus店,ジェイジェイプラステン,① 飲食店営業,コンビニエンスストア,福井県坂井市坂井町下新庄16-24,,36.169197,136.221139,0776436939,株式会社ＰＬＡＮＴ,5210001007068,福井県坂井市坂井町下新庄１５号８番地の１,坂保第2120144号,2022/01/31,2022/01/31,2022/01/31,2027/02/28,,許可,　,
018000,fBiz00000856540000000001,福井県,福井市,伊坂商店,イサカショウテン,① 飲食店営業,露店,福井県敦賀市福井県福井市舞屋町１６―６―１,(県下一円),36.035198,136.206862,080-5632-5901,伊庭秀宣,,滋賀県長浜市高月町森本２５３―３,福井県指令二保第2150120号,2021/08/24,2021/08/24,2021/08/24,2026/08/31,,許可,たこ焼、焼きそばに限る。,
018000,fBiz00000870640000000002,福井県,福井市,恐竜焼,キョウリュウヤキ,① 飲食店営業,露店,福井県勝山市村岡町寺尾51-11,,36.082556,136.506469,,特定非営利活動法人　恐竜のまち勝山応援隊,2210005006011,福井県勝山市村岡町寺尾51-11,1630087,2016/09/30,2021/09/01,2021/09/01,2026/09/01,,許可,大判焼に限る,
018000,fBiz00000880360000000003,福井県,福井市,ごはんCafeしなもん,ゴハンカフェシナモン,① 飲食店営業,飲食店,福井県敦賀市櫛川130-174-9,,35.653990,136.045276,0770-47-5654,増田彩乃,,福井県敦賀市櫛川１３０－１７４－９,福井県指令二保第2150148号,2021/11/02,2021/11/02,2021/11/02,2027/08/31,,許可, ,
018000,fBiz00000883130000000003,福井県,福井市,パスタ食堂NORA,パスタショクドウノラ,① 飲食店営業,,福井県坂井市三国町池上53-1,,36.236540,136.179617,0776822201,株式会社ＬｉｋｅＬａｂｏ,6210001018097,福井県福井市上北野１丁目４２０３番地２,坂保第2120105号,2021/10/20,2021/10/20,2021/10/20,2027/07/31,,許可,　,
018000,fBiz00000891770000000001,福井県,福井市,スイッチ　露店1号店,スイッチ　ロテンイチゴウテン,① 飲食店営業,露店,福井県三方上中郡若狭町鳥浜１２３―９―２,(県下一円),35.558314,135.897970,090-8807-9363,一般社団法人Switch Switch,4210005009722,福井県三方上中郡若狭町気山１９８―１５―２,福井県指令二保第2150123号,2021/08/31,2021/08/31,2021/08/31,2026/08/31,,許可,魚のフライ、ハンバーガーに限る。,
018000,fBiz00000924220000000002,福井県,福井市,厨ぼうず,チュウボウズ,① 飲食店営業,,福井県勝山市長山町1丁目5-50,,36.068455,136.506463,0779873939,,,,0537502,2005/01/27,2021/10/12,2021/10/12,2026/10/31,,許可,通常,
018000,fBiz00000924220000000003,福井県,福井市,有限会社　厨ぼうず,ユウゲンカイシャ　チュウボウズ,① 飲食店営業,露天営業,福井県勝山市長山町1-5-50,,36.068455,136.506463,0779873939,有限会社　厨ぼうず,9210002009992,福井県勝山市長山町1丁目5-50,1630096,2021/12/15,2021/12/15,2021/12/15,2026/12/31,,許可,焼きそば・ラーメンに限る,
018000,fBiz00000924220000000004,福井県,福井市,キッチンGAO,キッチンガオ,① 飲食店営業,移動販売,福井県勝山市長山町1丁目5-50,,36.068455,136.506463,0779873939,有限会社　厨ぼうず,9210002009992,福井県勝山市長山町1丁目5-50,2230011,2022/03/18,2022/03/18,2022/03/18,2027/03/31,,許可,車両番号：福井800す1718,
018000,fBiz00000929170000000001,福井県,福井市,禄縁,ロクエン,① 飲食店営業,中華,福井県大飯郡高浜町宮崎３５,,35.485219,135.557010,0770-72-6865,株式会社MKフーズ,9180001135868,愛知県名古屋市港区寛政町７―１９,福井県指令若保第2160095号,2021/09/14,2021/09/14,2021/09/14,2027/05/31,,許可,なし,
018000,fBiz00000934820000000001,福井県,福井市,喫茶クイーン,キッサクイーン,① 飲食店営業,,福井県勝山市郡町２－６－７,,36.072157,136.498687,0779-88-4030,,,,0138651,1984/12/05,2021/10/12,2021/10/12,2026/10/31,,許可,通常,
018000,fBiz00000935110000000001,福井県,福井市,天心,テンシン,① 飲食店営業,,福井県勝山市郡町２丁目６－２６,,36.072868,136.498452,0779-88-3963,,,,0138649,1985/08/14,2021/10/12,2021/10/12,2026/10/31,,許可,通常,
018000,fBiz00000945930000000001,福井県,福井市,MINTCAFE,ミントカフェ,① 飲食店営業,,福井県敦賀市平和町１番２３号,,35.649478,136.050807,0770253100,社会福祉法人ふくいの福祉家,7210005009785,福井県敦賀市平和町１号２３番,福井県指令二保第2150139号,2021/10/06,2021/10/06,2021/10/06,2028/08/31,,許可, ,
018000,fBiz00000950070000000001,福井県,福井市,kei.cook,ケイクック,① 飲食店営業,食堂,福井県敦賀市中央町2丁目1-1,市役所2F,35.645238,136.055538,090-4684-1615,田中惠子,,福井県敦賀市野坂４６－１－１,福井県指令二保第2150127号,2021/09/03,2021/09/03,2021/09/03,2027/09/30,,許可, ,
018000,fBiz00000950660000000001,福井県,福井市,うなゲッツ,ウナゲッツ,① 飲食店営業,移動店舗,福井県小浜市甲ケ崎１０－１９－１,,35.526639,135.752329,0770-64-6068,株式会社ゲッツ,7180001100262,愛知県尾張旭市東印場町１－１－６,福井県指令若保第2160099号,2021/09/27,2021/09/27,2021/09/27,2026/09/30,,許可,なし,
018000,fBiz00000954980000000001,福井県,福井市,(株)六千坊 精進坂店,カブロクセンボウ　ショウジンザカテン,① 飲食店営業,,福井県勝山市平泉寺町平泉寺56-66,顯海寺内,36.043861,136.537785,,,,,2130083,2021/09/22,2021/09/22,2021/09/21,2026/09/30,,許可,通常,
018000,fBiz00000954980000000002,福井県,福井市,六千坊キッチントレーラー,ロクセンボウ　キッチントレーラー,① 飲食店営業,キッチンカー,福井県勝山市平泉寺町平泉寺５６－３,,36.042580,136.540245,,,,,2130082,2021/09/22,2021/09/21,2021/09/21,2026/09/30,,許可,被牽引車　車両番号：福井830さ270　車種：加工フルトレーラ　排気量：－　牽引車　車両番号：福井300も1147　車種：ステーションワゴン　排気量：4.66L,
018000,fBiz00000954980000000003,福井県,福井市,平泉寺キッチントレーラー,ヘイセンジキッチントレーラー,① 飲食店営業,移動販売,福井県勝山市平泉寺町平泉寺41-8,,36.043925,136.536394,0779-88-0033,株式会社 六千坊,8210001016586,,2130091,2021/12/17,2021/12/17,2021/12/17,2026/12/31,,許可,被牽引車　車両番号：福井 830 そ 6000　車種：加工フルトレーラ　排気量：－　牽引車　車両番号：福井334ち6000　車種：ランドクルーザーステーションワゴン　排気量：4.66L,
018000,fBiz00000963070000000002,福井県,福井市,民宿　林湊,ミンシュク　ハヤシミナト,① 飲食店営業,,福井県大野市西勝原１４－６,,35.968306,136.595767,0779-65-6836,,,,9736794,1976/07/20,2021/12/16,2021/12/16,2026/12/31,,許可,通常,
018000,fBiz00000969990000000001,福井県,福井市,クレープSARU,クレープサル,① 飲食店営業,移動店舗,福井県大飯郡高浜町畑７―１,,35.098795,139.019013,0770-72-2713,眞鍋三恵,,福井県大飯郡高浜町中津梅24―３―１,福井県指令若保第2160096号,2021/09/17,2021/09/17,2021/09/17,2026/09/30,,許可,なし,
018000,fBiz00000982580000000001,福井県,福井市,太志　３号店,タイシサンゴウテン,① 飲食店営業,Bar,福井県敦賀市野神１－１７－２,　２Ｆ,35.635693,136.053933,090-6814-5789,佐藤太志,,福井県敦賀市野神１－１６,福井県指令二保第2150128号,2021/09/10,2021/09/10,2021/09/10,2027/07/31,,許可, ,
018000,fBiz00001004050000000001,福井県,福井市,給食カフェ　はな結,キュウショクカフェ　ハナユイ,① 飲食店営業,食堂,福井県三方上中郡若狭町熊川38-25,,35.444114,135.900199,070-1066-6161,石倉怜菜,,福井県三方上中郡若狭町熊川38-25,福井県指令若保第2160097号,2021/10/01,2021/10/01,2021/10/01,2027/11/30,,許可,なし,
018000,fBiz00001006160000000001,福井県,福井市,望洋楼,ボウヨウロウ,① 飲食店営業,,福井県坂井市三国町米ケ脇4-3-38,,36.225596,136.132301,0776820067,株式会社第一望洋楼,8210001007362,福井県坂井市三国町米ケ脇4-3-38,坂保第2120100号,2021/10/14,2021/10/14,2021/10/14,2028/07/31,,許可,　,
018000,fBiz00001010370000000001,福井県,福井市,チャマゴン茶屋,チャマゴンチャヤ,① 飲食店営業,,福井県勝山市村岡町寺尾51-11,かつやま恐竜の森公園管理事務所,36.082556,136.506469,0779-88-8777,特定非営利活動法人恐竜のまち勝山応援隊,2210005006011,福井県勝山市村岡町寺尾51-11　かつやま恐竜の森公園管理事務所,1137115,2011/07/12,2021/10/12,2021/10/12,2026/10/31,,許可,通常,
018000,fBiz00001016430000000001,福井県,福井市,日本建設工業(株)高浜寮,ニホンケンセツカブシキガイシャタカハマリョウ,① 飲食店営業,,福井県大飯郡高浜町西三松字荷入６５番,,35.497457,135.509874,0770-72-1004,株式会社ライフトラスト,6120101051692,大阪府貝塚市三ツ松1047,福井県指令若保第2160100号,2021/09/27,2021/09/27,2021/09/27,2028/05/31,,許可,なし,
018000,fBiz00001020170000000001,福井県,福井市,十楽の森,ジュウラクノモリ,① 飲食店営業,,福井県あわら市山十楽60－3,,36.239783,136.229306,09080988042,岡田英明,,福井県あわら市山十楽１１－１１,坂保第2120104号,2021/10/12,2021/10/12,2021/10/12,2026/11/30,,許可,　,
018000,fBiz00001024370000000003,福井県,福井市,Tendre,タンドル,① 飲食店営業,,福井県坂井市春江町江留下高道１６９,,36.129597,136.217945,0776-43-6863,宮田大勢,,福井県坂井市春江町江留下高道１６９,坂保第2120094号,2021/09/24,2021/09/24,2021/09/24,2027/03/31,,許可,　,
018000,fBiz00001027430000000001,福井県,福井市,より処,ヨリドコロ,① 飲食店営業,,福井県大野市朝日２６－２１－１,,35.904191,136.662357,050-5892-2110,,,,1630068,2016/07/29,2021/10/12,2021/10/12,2026/10/31,,許可,通常,
018000,fBiz00001070230000000001,福井県,福井市,三宝屋,ミタカラヤ,① 飲食店営業,露店,福井県敦賀市県下一円,,35.632526,136.067842,0798727533,髙瀬航希,,兵庫県西宮市神原１４―５０―６,福井県指令二保第2150130号,2021/09/30,2021/09/30,2021/09/30,2026/09/30,,許可,ベビーカステラに限る,
018000,fBiz00001099460000000001,福井県,福井市,CYANDYMAN,キャンディマン,① 飲食店営業,,福井県坂井市丸岡町一本田弐字小深町１１－３,,36.152759,136.264462,090-2032-9912,宮下龍一,,富山県高岡市福岡町福岡表元町1124,坂保第2120098号,2021/09/29,2021/09/29,2021/09/29,2026/09/30,,許可,コットンキャンディブリトーに限る,
018000,fBiz00001100590000000001,福井県,福井市,イエロー,イエロー,① 飲食店営業,スナック,福井県敦賀市本町１丁目２―１２,クリスタルコートビル１F,35.653142,136.074336,0770-21-1980,崔明煕,,福井県敦賀市衣掛町１４８,福井県指令二保第2150131号,2021/10/20,2021/10/20,2021/10/20,2027/03/31,,許可,なし,
018000,fBiz00001113190000000001,福井県,福井市,御食事処　柊,オショクジドコロ　ヒイラギ,① 飲食店営業,,福井県勝山市郡町３－５０３,,36.072763,136.496296,090-5680-5079,,,,1630048,2016/06/14,2021/10/12,2021/10/12,2026/10/31,,許可,通常,
018000,fBiz00001115240000000001,福井県,福井市,大清水公園,オオショウズコウエン,① 飲食店営業,,福井県勝山市１０７字西後町３９番甲乙,,36.059748,136.498341,,勝山市観光まちづくり株式会社,7210001016380,福井県勝山市元町１丁目１８番１９号,2130086,2021/10/16,2021/10/16,2021/10/16,2026/10/31,,許可,通常,
018000,fBiz00001121260000000001,福井県,福井市,ファミリーマート勝山北郷店,ファミリーマートカツヤマキタゴウテン,① 飲食店営業,,福井県勝山市北郷町坂東島８－８,,36.080890,136.423201,0779-89-1120,セプテンバー・ナイン株式会社,2210001018555,福井県福井市灯明寺３丁目４５２４,2130084,2021/10/15,2021/10/15,2021/10/15,2028/06/30,,許可,通常,
018000,fBiz00001121260000000002,福井県,福井市,ファミリーマート　大野中挾店,ファミリーマート　オオノナカバサミテン,① 飲食店営業,,福井県大野市中挾３丁目９１３,,35.992579,136.499795,0779-65-0277,セプテンバー・ナイン株式会社,2210001018555,福井県福井市灯明寺３丁目４５２４,2130085,2021/10/15,2021/10/15,2021/10/15,2028/07/31,,許可,通常,
018000,fBiz00001123110000000001,福井県,福井市,ブルーライトヨコヤマ,ブルーライトヨコヤマ,① 飲食店営業,イタリアンレストラン,福井県大飯郡高浜町和田118-30-1,カミヤビル１F,35.491564,135.578188,0770-72-8180,横山英樹,,福井県大飯郡高浜町和田123―27―２　サンシャインいまい２０２,福井県指令若保第2160101号,2021/10/15,2021/10/15,2021/10/15,2028/06/30,,許可,なし,
018000,fBiz00001142950000000001,福井県,福井市,琉泡楽園　美ら　敦賀店,リュウホウラクエンチュラツルガテン,① 飲食店営業,居酒屋,福井県敦賀市新松島町３―１２,,35.646680,136.055930,0770251188,有限会社OUTGROW,9140002027259,京都府舞鶴市下福井５１,福井県指令二保第2150136号,2021/10/13,2021/10/13,2021/10/13,2027/08/31,,許可, ,
018000,fBiz00001151010000000001,福井県,福井市,むろこヒュッテ,ムロコヒュッテ,① 飲食店営業,,福井県勝山市村岡町浄土寺３８－１２,,36.073465,136.514095,0779-87-3415,,,,1137090,2011/04/28,2021/10/12,2021/10/12,2026/10/31,,許可,通常,
018000,fBiz00001153310000000001,福井県,福井市,ナイトインS1,ナイトインエスワン,① 飲食店営業,スナック,福井県小浜市小浜竜田6,,35.494031,135.742744,0770-64-5915,東畑マーシャアンデロスレイエス,,福井県小浜市水取1丁目５-１,福井県指令若保第2160104号,2021/10/18,2021/10/18,2021/10/18,2027/03/31,,許可,なし,
018000,fBiz00001156270000000001,福井県,福井市,ペンションUPO,ペンションウポ,① 飲食店営業,,福井県勝山市村岡町栃神谷１１－６－１,,36.092262,136.533101,0779-87-6722,,,,0138648,1996/12/04,2021/10/12,2021/10/12,2027/10/31,,許可,通常,
018000,fBiz00001156780000000001,福井県,福井市,プチホテル　PaPaMaMa,プチホテル　パパママ,① 飲食店営業,,福井県大野市朝日２６－２９－１,,35.903754,136.661368,0779-78-2226,,,,9736880,1988/10/03,2021/10/12,2021/10/12,2026/10/31,,許可,通常,
018000,fBiz00001174520000000001,福井県,福井市,縄文ロマンパーク,ジョウモンロマンパーク,① 飲食店営業,移動店舗、40l,福井県三方上中郡若狭町鳥浜,,35.556189,135.900403,080-4974-1811,山下陽介,,大阪府堺市西区山田1丁1096-1,福井県指令二保第2150141号,2021/10/06,2021/10/06,2021/10/06,2026/10/31,,許可,簡易な営業に限る。車両番号：なにわ　480　て　9156,
018000,fBiz00001174520000000002,福井県,福井市,わたなべ旅館,ワタナベリョカン,① 飲食店営業,露店,福井県敦賀市津内町2丁目１－３２,(県下一円),35.651036,136.071616,080-4974-1811,山下陽介,,大阪府堺市西区山田1丁1096-1,福井県指令二保第2150140号,2021/10/06,2021/10/06,2021/10/06,2026/10/31,,許可,ベビーカステラ、フルーツあめに限る。,
018000,fBiz00001211100000000004,福井県,福井市,本格炭火焼料理　一,ホンカクスミビヤキリョウリ　ハジメ,① 飲食店営業,,福井県大野市弥生町1-17,,35.983212,136.496380,0779645383,,,,1137118,2011/07/27,2021/11/16,2021/11/16,2026/11/30,,許可,通常,
018000,fBiz00001211680000000001,福井県,福井市,麺屋　とりこ　,メンヤ　トリコ,① 飲食店営業,,福井県坂井市春江町江留上昭和１３８番地,,36.121320,136.220053,０７７６９７９５２３,玉井克磨,,福井県あわら市温泉３丁目８０２,坂保第2120112号,2021/11/02,2021/11/02,2021/11/02,2027/03/31,,許可,　,
018000,fBiz00001214680000000006,福井県,福井市,フルーツのマルゲン,フルーツノマルゲン,① 飲食店営業,飲食店　 菓子製造業,福井県大野市元町12-13,,35.984178,136.491395,0779664475,黒田美樹,,福井県大野市元町１２－１３,2230003,2022/02/25,2022/02/25,2022/02/25,2028/11/30,,許可,通常,
018000,fBiz00001216720000000001,福井県,福井市,スナック　リド,スナック　リド,① 飲食店営業,,福井県あわら市温泉５丁目５０４,,36.227174,136.191764,0776-77-1810,村井絢,,福井県あわら市温泉 5丁目504,坂保第2120109号,2021/10/22,2021/10/22,2021/10/22,2026/10/31,,許可,　,
018000,fBiz00001232280000000004,福井県,福井市,別邸たち太,ベッテイタチダ,① 飲食店営業,飲食店,福井県大飯郡高浜町事代1-37,,35.492944,135.551492,0770-50-7561,株式会社たち太,5210001017091,福井県大飯郡高浜町事代1-37,福井県指令若保第2260005号,2022/01/27,2022/01/27,2022/01/27,2027/05/31,,許可,,
018000,fBiz00001236100000000002,福井県,福井市,いっぷく処　かぶらちゃん,イップクドコロ　カブラチャン,① 飲食店営業,食堂,福井県三方上中郡若狭町山内５２岸ヶ下８―１,,35.364087,135.238365,090-2128-6599,合同会社　山内かぶらちゃんの会,1210003001312,福井県三方上中郡若狭町山内42―12,福井県指令若保第2260020号,2022/03/28,2022/03/28,2022/03/28,2028/06/30,,許可,,
018000,fBiz00001253240000000001,福井県,福井市,和楽囲家,ワライヤ,① 飲食店営業,,福井県あわら市温泉3丁目1001,2階,36.223932,136.189966,090-8702-7016,米川尚弘,,福井県あわら市二面４丁目209,坂保第2120111号,2021/11/08,2021/11/08,2021/11/08,2027/10/31,,許可,,
018000,fBiz00001253740000000001,福井県,福井市,ｌａｂ　ｃａｆｅ,ラボカフェ,① 飲食店営業,露店,福井県敦賀市野神２－３４－２,(県下一円),35.634389,136.055104,0770-47-6526,株式会社LABwel,1210001015941,福井県敦賀市公文名５４－１０－１,福井県指令二保第2150142号,2021/10/20,2021/10/20,2021/10/20,2026/10/31,,許可,お好み焼き、メンチカツに限る。,
018000,fBiz00001253740000000002,福井県,福井市,lab kitchen,ラボキッチン,① 飲食店営業,移動店舗（95L）,福井県敦賀市野神２―３４―２,（県下一円）,35.634389,136.055104,080-8699-5246,株式会社LABwel,1210001015941,福井県敦賀市公文名５４－１０－１,福井県指令二保第2150149号,2021/11/02,2021/11/02,2021/11/02,2026/11/30,,許可,簡易な営業に限る　車両番号：福井400る6,
018000,fBiz00001259630000000001,福井県,福井市,安,アン,① 飲食店営業,,福井県あわら市二面２丁目６０９,,36.225969,136.199384,090-4329-6993,吉江夕子,,福井県あわら市二面４１―２２―１,坂保第2120113号,2021/10/28,2021/10/28,2021/10/28,2026/10/31,,許可,,
018000,fBiz00001260280000000001,福井県,福井市,三好野,ミヨシノ,① 飲食店営業,,福井県大野市若杉町１４０９,,35.975393,136.501497,0779-66-3282,,,,9632157,1993/09/10,2021/11/16,2021/11/16,2026/11/30,,許可,通常,
018000,fBiz00001264920000000001,福井県,福井市,鉄板焼き花ちゃん,テッパンヤキハナチャン,① 飲食店営業,お好み焼き屋,福井県大飯郡高浜町中津海24-18-2,,35.487885,135.538553,0770-72-2337,吉岡美千代,,福井県大飯郡高浜町中津海２４―１８―２,福井県指令若保第2160107号,2021/11/08,2021/11/08,2021/11/08,2027/05/31,,許可,なし,
018000,fBiz00001274900000000001,福井県,福井市,ゆめおーれ勝山,ユメオーレカツヤマ,① 飲食店営業,,福井県勝山市昭和町1-7-40,,36.061764,136.503151,0779-87-1200,株式会社名響社,4210001004090,福井県福井市成和1-1721,2130088,2021/11/05,2021/11/05,2021/11/05,2026/11/30,,許可,通常,
018000,fBiz00001280490000000001,福井県,福井市,尾崎商店,オザキショウテン,① 飲食店営業,露店,福井県敦賀市県下一円,,35.632526,136.067842,09046861378,尾崎浩子,,福井県鯖江市下司町１９―３―２,福井県指令二保第2150146号,2021/10/26,2021/10/26,2021/10/26,2026/10/31,,許可,クレープ、カステラに限る,
018000,fBiz00001280490000000002,福井県,福井市,尾崎商店,オザキショウテン,① 飲食店営業,露店,福井県敦賀市県下一円,,35.632526,136.067842,09046861378,尾崎浩子,,福井県鯖江市下司町１９―３―２,福井県指令二保第2150147号,2021/10/26,2021/10/26,2021/10/26,2026/10/31,,許可,じゃがバター、まるまる焼きに限る,
018000,fBiz00001282140000000001,福井県,福井市,平泉寺のソフトクリーム屋さん,ヘイセンジノソフトクリームヤサン,① 飲食店営業,,福井県勝山市平泉寺町平泉寺67-20-2,,36.043114,136.535163,0779880255,有限会社神野花さき邑,7210002009945,福井県勝山市平泉寺町平泉寺第１６８号６５番地,2130087,2021/11/05,2021/11/05,2021/11/05,2027/09/30,,許可,通常,
018000,fBiz00001299830000000001,福井県,福井市,大亀屋,オオガメヤ,① 飲食店営業,,福井県大野市本町６－１７,,35.988858,136.489704,0779-66-2157,,,,9732013,1985/02/20,2021/11/16,2021/11/16,2026/11/30,,許可,通常,
018000,fBiz00001301520000000001,福井県,福井市,MahanaTable,マハナテーブル,① 飲食店営業,カフェ,福井県三方郡美浜町佐田５５－８－１,,35.630085,135.983674,0770-38-1881,株式会社TIATURI,4210001018009,福井県三方郡美浜町佐田５６－２２,福井県指令二保第2150144号,2021/10/22,2021/10/22,2021/10/22,2026/10/31,,許可, ,
018000,fBiz00001316960000000001,福井県,福井市,味処　けんちゃん,アジドコロ　ケンチャン,① 飲食店営業,,福井県大野市天神町５－９,,35.979113,136.489925,0779-65-5630,,,,9632125,1987/08/25,2021/11/16,2021/11/16,2026/11/30,,許可,通常,
018000,fBiz00001317590000000001,福井県,福井市,玉乃家,タマノヤ,① 飲食店営業,,福井県大野市元町１４－３,,35.984797,136.492305,0779-66-2039,,,,9632243,1976/12/07,2021/11/16,2021/11/16,2026/11/30,,許可,通常,
018000,fBiz00001318500000000001,福井県,福井市,呑喜,ノンキ,① 飲食店営業,,福井県大野市東中町３１９,,35.980170,136.504328,0779-66-1043,,,,9632264,1972/12/23,2021/11/16,2021/11/16,2026/11/30,,許可,通常,
018000,fBiz00001331260000000001,福井県,福井市,弥生旅館,ヤヨイリョカン,① 飲食店営業,,福井県大野市元町１０－１９,,35.985058,136.491757,0779-66-2860,,,,9732024,1994/03/24,2021/11/16,2021/11/16,2026/11/30,,許可,通常,
018000,fBiz00001331790000000001,福井県,福井市,スナック藤,スナックフジ,① 飲食店営業,,福井県大野市糸魚町８－４０,,35.975508,136.490616,0779-65-8390,,,,9733845,1997/09/29,2021/11/16,2021/11/16,2026/11/30,,許可,通常,
018000,fBiz00001332260000000001,福井県,福井市,ポルタ,ポルタ,① 飲食店営業,,福井県大野市明倫町１０－２２,,35.983000,136.490244,779-65-7857,,,,9733870,1997/10/31,2021/11/16,2021/11/16,2026/11/30,,許可,通常,
018000,fBiz00001332870000000001,福井県,福井市,レストラン　ときわ食堂,レストラン　トキワショクドウ,① 飲食店営業,,福井県大野市元町５－１８,,35.985449,136.489143,0779-66-2489,,,,9736772,1979/05/31,2021/11/16,2021/11/16,2026/11/30,,許可,通常,
018000,fBiz00001342660000000001,福井県,福井市,春蘭,シュンラン,① 飲食店営業,,福井県大野市糸魚町５－１１,,35.975865,136.492406,0779-65-6953,,,,9736788,1985/07/15,2021/11/16,2021/11/16,2026/11/30,,許可,通常,
018000,fBiz00001359250000000001,福井県,福井市,旅館やまと,リョカンヤマト,① 飲食店営業,,福井県大野市大和町４－１,,35.983849,136.495198,0779-65-1863,,,,9736810,1967/08/17,2021/11/16,2021/11/16,2026/11/30,,許可,通常,
018000,fBiz00001359680000000001,福井県,福井市,川,カワ,① 飲食店営業,,福井県大野市桜塚町７０５,,35.971328,136.504466,0779-66-4871,,,,9736883,1988/10/24,2021/11/16,2021/11/16,2026/11/30,,許可,通常,
018000,fBiz00001363940000000001,福井県,福井市,スナック　アンカー,スナック　アンカー,① 飲食店営業,,福井県大野市高砂町１５－２１,,35.978035,136.491147,0779-65-6722,,,,9736887,1988/10/21,2021/11/16,2021/11/16,2026/11/30,,許可,通常,
018000,fBiz00001365600000000001,福井県,福井市,YUMEYA,ユメヤ,① 飲食店営業,,福井県大野市高砂町１１－１１,,35.978946,136.490401,0779-65-6884,,,,9736919,1988/11/14,2021/11/16,2021/11/16,2026/11/30,,許可,通常,
018000,fBiz00001367170000000001,福井県,福井市,蝉ころん,セミコロン,① 飲食店営業,,福井県大野市清瀧１２３－９,寿楽山１階,35.979778,136.480802,0779-66-2455,,,,0137058,2001/08/31,2021/11/16,2021/11/16,2026/11/30,,許可,通常,
018000,fBiz00001368450000000001,福井県,福井市,ラ　グロッタ　アズーラ,ラ　グロッタ　アズーラ,① 飲食店営業,,福井県大野市若杉町１３０２,,35.976638,136.501799,0779-65-6070,,,,0637006,2006/02/23,2021/11/16,2021/11/16,2026/11/30,,許可,通常,
018000,fBiz00001369170000000001,福井県,福井市,魚福,ウオフク,① 飲食店営業,,福井県大野市本町３－２,,35.986647,136.488110,0779-66-2566,,,,1137094,2011/04/28,2021/11/16,2021/11/16,2026/11/30,,許可,通常,
018000,fBiz00001391350000000001,福井県,福井市,ノワール,ノワール,① 飲食店営業,,福井県大野市本町９－３,,35.986759,136.489817,0779-66-2339,,,,1137104,2011/06/03,2021/11/16,2021/11/16,2026/11/30,,許可,通常,
018000,fBiz00001393550000000001,福井県,福井市,ブルームーン,ブルームーン,① 飲食店営業,,福井県大野市高砂町１０－１,,35.979827,136.490357,0779-66-7877,,,,1137124,2011/09/30,2021/11/16,2021/11/16,2026/11/30,,許可,通常,
018000,fBiz00001394540000000001,福井県,福井市,ｃａｆｅ&スナック　麗,カフェアンドスナック　レイ,① 飲食店営業,,福井県大野市春日３丁目１９－９,,35.972869,136.498744,0779-66-5553,,,,1530093,2016/01/06,2021/11/16,2021/11/16,2026/11/30,,許可,通常,
018000,fBiz00001394610000000002,福井県,福井市,スナック　縁,スナック　ユカリ,① 飲食店営業,,福井県大野市右近次郎４０－７２－２,,35.968716,136.488412,,,,,1630062,2016/07/15,2021/11/16,2021/11/16,2026/11/30,,許可,通常,
018000,fBiz00001405310000000001,福井県,福井市,D's スマイル,ディーズスマイル,① 飲食店営業,露店,福井県小浜市川崎1-3-2,,35.500175,135.740179,090-8167-4263,水谷和弘,,京都府舞鶴市余部上208,福井県指令若保第2160111号,2021/11/15,2021/11/15,2021/11/15,2026/11/30,,許可,ポップコーンに限る,
018000,fBiz00001409450000000001,福井県,福井市,リサイクルショップ和,リサイクルショップナゴミ,① 飲食店営業,,福井県坂井市春江町随応寺１７―１０,,36.133789,136.219437,0776-50-1350,公益社団法人坂井市シルバー人材センター,3210005008980,福井県坂井市春江町随応寺第２０号２４番地１,坂保第2120127号,2021/12/17,2021/12/17,2021/12/17,2027/03/31,,許可,,
018000,fBiz00001475000000000001,福井県,福井市,くま,クマ,① 飲食店営業,,福井県大野市弥生町７－４,サミットビル２F,35.981058,136.496213,,,,,1137083,2011/03/29,2021/11/16,2021/11/16,2026/11/30,,許可,通常,
018000,fBiz00001516680000000002,福井県,福井市,Ｓｅａ　оｆ　ＪＡＰＡＮ　彩波　,シーオブジャパン　イロハ,① 飲食店営業,ラーメン屋,福井県敦賀市若葉町１丁目１５３１,さかな街,35.634680,136.049913,070-8517-9140,株式会社ＨＡＦ．Ｂ,8210001018649,福井県敦賀市相生町１４－１５,福井県指令二保第2250031号,2022/03/15,2022/03/15,2022/03/15,2027/07/31,,許可, ,
018000,fBiz00001516680000000004,福井県,福井市,創彩酒房Ｅ．ＬＯＨＡ,ソウサイシュボウ　イロハ,① 飲食店営業,居酒屋,福井県敦賀市新松島町１３０６,,35.647729,136.053340,0770-24-0225,株式会社ＨＡＦ．Ｂ,8210001018649,福井県敦賀市相生町１４－１５,福井県指令二保第2250032号,2022/03/15,2022/03/15,2022/03/15,2027/08/31,,許可, ,
018000,fBiz00001516680000000005,福井県,福井市,麺匠かぐや,メンショウカグヤ,① 飲食店営業,ラーメン屋,福井県敦賀市呉竹町２丁目５－２５－１,,35.646246,136.056486,0770-36-4778,株式会社ＨＡＦ．Ｂ,8210001018649,福井県敦賀市相生町１４－１５,福井県指令二保第2250030号,2022/03/15,2022/03/15,2022/03/15,2027/09/30,,許可, ,
018000,fBiz00001524640000000001,福井県,福井市,日々是好日,ヒビコレコウジツ,① 飲食店営業,売店,福井県敦賀市中央町２丁目１－１,市役所１Ｆ,35.645238,136.055538,0770-21-1111,株式会社エコシステム,3210001011278,福井県敦賀市古田刈６６－１０１３,福井県指令二保第2150151号,2021/11/11,2021/11/11,2021/11/11,2027/09/30,,許可,b,
018000,fBiz00001543450000000001,福井県,福井市,有限会社　鮨富,ユウゲンガイシャ　スシトミ,① 飲食店営業,寿司屋,福井県小浜市小浜広峰83番地の1,,35.497261,135.744010,0770-53-0337,有限会社　鮨富,4210002013792,福井県小浜市小浜広峰83番地の1,福井県指令若保第2160112号,2021/12/06,2021/12/06,2021/12/06,2027/03/31,,許可,なし,
018000,fBiz00001559230000000001,福井県,福井市,俵屋,タワラヤ,① 飲食店営業,旅館,福井県大野市日吉町１－１,,35.981651,136.490827,0779-66-3807,株式会社　俵屋,8210001009838,福井県大野市日吉町１－１,9736715,1976/04/22,2021/11/16,2021/11/16,2026/11/30,,許可,通常,
018000,fBiz00001571810000000002,福井県,福井市,イフスコヘルスケア株式会社3133むつみ園事業所,イフスコヘルスケアカブシキガイシャムツミエンジギョウショ,① 飲食店営業,飲食店（食堂）,福井県大野市篠座16-13,,35.958287,136.499129,080-1488-1853,イフスコヘルスケア株式会社,9120001099706,大阪府大阪市福島区福島7-15-26,0937019,2009/03/26,2021/11/30,2021/11/30,2027/11/30,,許可,通常,
018000,fBiz00001584020000000002,福井県,福井市,十里勝,トリカツ,① 飲食店営業,,福井県勝山市本町1－4－28,,36.059365,136.498839,0779880423,森通昌,,福井県勝山市本町１－４－２８,0138520,1972/08/31,2022/01/19,2022/01/19,2027/01/31,,許可,通常,
018000,fBiz00001590890000000002,福井県,福井市,はまや,ハマヤ,① 飲食店営業,,福井県大野市日吉町２２－２,,35.981270,136.495628,0779-66-2443,,,,0137039,2001/05/31,2021/11/16,2021/11/16,2026/11/30,,許可,通常,
018000,fBiz00001591330000000001,福井県,福井市,福丼県フェス,フクドンケンフェス,① 飲食店営業,イベント,福井県敦賀市桜町1ー１,きらめきみなと館,35.659938,136.071150,0770-20-1100,福井テレビジョン放送株式会社,2210001003689,福井県福井市問屋町３丁目４１０,福井県指令二保第2150156号,2021/11/05,2021/11/05,2021/11/05,2026/11/30,,許可,営業所で行う臨時営業に限る。,
018000,fBiz00001591990000000001,福井県,福井市,マクドナルド大野ヴィオ店,マクドナルドオオノヴィオテン,① 飲食店営業,,福井県大野市鍬掛１７－１７－１,,35.974006,136.478421,0779-66-6661,株式会社　ティーエムエー,7210002012486,福井県越前市小松１丁目６－４０,0937032,2009/06/11,2021/11/16,2021/11/16,2027/11/30,,許可,通常,
018000,fBiz00001593190000000001,福井県,福井市,喜久屋食品,キクヤショクヒン,① 飲食店営業,,福井県大野市日吉町２０－７,,35.982502,136.495670,0779-65-3031,,,,9632031,1981/04/07,2021/11/16,2021/11/16,2026/11/30,,許可,通常,
018000,fBiz00001640660000000001,福井県,福井市,すみよし,スミヨシ,① 飲食店営業,食堂,福井県三方上中郡若狭町三宅８７の３の１,,35.462556,135.859178,090-4688-5446,炭吉寿郎,,福井県三方上中郡若狭町三宅８７の３の１,福井県指令若保第2160116号,2021/12/03,2021/12/03,2021/12/03,2027/11/30,,許可,なし,
018000,fBiz00001689000000000005,福井県,福井市,（合資）三谷屋製パン所,ゴウシミタニヤセイパンショ,① 飲食店営業,,福井県勝山市本町１丁目１の１８,,36.062137,136.498935,,合資会社三谷屋製パン所,9210003000505,福井県勝山市本町１丁目１番１８号,0238506,1982/09/14,2022/01/19,2022/01/19,2027/01/31,,許可,通常,
018000,fBiz00001691220000000002,福井県,福井市,セブンーイレブンあわら大溝店,セブンイレブンアワラオオミゾテン,① 飲食店営業,コンビニエンスストア,福井県坂井市春江町いちい野北２―６０２,,36.134603,136.232095,0776-73-1850,秋本真輝,,福井県あわら市大溝2ー602,坂保第2120143号,2021/12/28,2021/12/28,2021/12/28,2027/11/30,,許可,,
018000,fBiz00001695960000000005,福井県,福井市,ふぐや　五良左衛門,フグヤゴロウザエモン,① 飲食店営業,露店,福井県敦賀市相生町１３―４,（県下一円）,35.656405,136.067936,090-6218-7838,石川恵,,福井県敦賀市木崎13-15-203,福井県指令二保第2250006号,2022/01/21,2022/01/21,2022/01/21,2027/01/31,,許可,たこ焼き、たい焼きに限る,
018000,fBiz00001721500000000001,福井県,福井市,「さ蔵」,サクラ,① 飲食店営業,,福井県大野市田野４９－２,,35.982401,136.531141,0779-65-2364,,,,0637009,2006/03/24,2021/12/16,2021/12/16,2026/12/31,,許可,通常,
018000,fBiz00001722530000000001,福井県,福井市,与志川,ヨシカワ,① 飲食店営業,,福井県勝山市本町２丁目６－１２,,36.060293,136.497239,0779-88-0438,,,,0238510,1994/05/19,2022/01/19,2022/01/19,2027/01/31,,許可,通常,
018000,fBiz00001723250000000001,福井県,福井市,茶房　松陽館,サボウ　ショウヨウカン,① 飲食店営業,,福井県勝山市本町２丁目３－１６,,36.059423,136.499583,0779-88-0435,,,,1037016,2010/03/02,2022/01/19,2022/01/19,2027/01/31,,許可,通常,
018000,fBiz00001723640000000001,福井県,福井市,スナック　ふみ,スナック　フミ,① 飲食店営業,,福井県勝山市本町２－１１－１２,,36.059164,136.498239,0779-87-1766,,,,023805,1982/05/31,2022/01/19,2022/01/19,2027/01/31,,許可,通常,
018000,fBiz00001728040000000001,福井県,福井市,酒処　風林,サケドコロ　フウリン,① 飲食店営業,,福井県勝山市本町３丁目４－１２,,36.057561,136.497961,0779-89-1988,,,,0637523,2006/09/06,2022/01/19,2022/01/19,2027/01/31,,許可,通常,
018000,fBiz00001730170000000001,福井県,福井市,白山やまぶどうワイン,ハクサンヤマブドウワイン,① 飲食店営業,,福井県大野市大野市落合2-24,,35.986611,136.581456,0779-67-7111,株式会社　白山やまぶどうワイン,4210001009874,福井県大野市落合2-24,0137055,2001/08/14,2021/12/16,2021/12/16,2026/12/31,,許可,通常,
018000,fBiz00001730200000000003,福井県,福井市,東商店,ヒガシショウテン,① 飲食店営業,露店,福井県大野市篠座６７－９－２,,35.966839,136.493058,,,,,1630098,2016/12/16,2021/12/09,2021/12/09,2026/12/31,,許可,露店：焼きまんじゅうに限る,
018000,fBiz00001739860000000001,福井県,福井市,カジュアルバー　カンパニーレ,カジュアルバー　カンパニーレ,① 飲食店営業,,福井県勝山市本町１丁目６－３０,寿楽ビル２F,36.061329,136.496607,,,,,2130092,2021/12/17,2021/12/17,2021/12/17,2027/01/31,,許可,通常,
018000,fBiz00001740800000000002,福井県,福井市,プチホテル　リヴェール勝山,プチホテルリヴェールカツヤマ,① 飲食店営業,,福井県勝山市１７８－１－２０,,36.060925,136.500639,,ラド観光株式会社,6120001071915,大阪府大阪市北区大淀南1-11-5,2130093,2021/12/10,2021/12/10,2021/12/10,2027/10/31,,許可,通常,
018000,fBiz00001743570000000002,福井県,福井市,NALU,ナル,① 飲食店営業,,福井県勝山市本町2-2-27,,36.059164,136.498239,080-2960-1879,小林章夫,,福井県勝山市沢町2-11-21,1630060,2016/07/07,2022/01/31,2022/01/31,2022/01/31,,許可,通常,
018000,fBiz00001744630000000001,福井県,福井市,横浜ラーメン風神家,ヨコハマラーメンフウジンヤ,① 飲食店営業,ラーメン屋,福井県敦賀市中央町１丁目５―５,MEGAドン・キホーテUNY敦賀店　１Fフードコート,35.643602,136.059152,0770236733,株式会社ファミリージャパン,2110001017724,新潟県柏崎市北半田２―３―２３,福井県指令二保第2150166号,2021/12/07,2021/12/07,2021/12/07,2027/09/30,,許可,なし,
018000,fBiz00001744990000000001,福井県,福井市,ｅｖｅｒ　ｓоｕｌ,エバーソウル,① 飲食店営業,BAR,福井県敦賀市津内町１丁目１―１０,前川マンション１階３号室,35.652663,136.071467,090-1802-7748,松永文敏,,福井県敦賀市衣掛町５２３,福井県指令二保第2150165号,2021/12/02,2021/12/02,2021/12/02,2027/09/30,,許可, ,
018000,fBiz00001753570000000001,福井県,福井市,エフ,エフ,① 飲食店営業,,福井県勝山市本町１丁目５－６,,36.061387,136.496832,,,,,1137005,2011/02/14,2022/01/28,2022/01/28,2027/01/31,,許可,,
018000,fBiz00001753770000000001,福井県,福井市,カラオケ喫茶　香音,カラオケキッサ　カノン,① 飲食店営業,,福井県勝山市本町４丁目７－２１,,36.056987,136.497459,0779-64-5616,,,,1630052,2016/06/29,2022/01/28,2022/01/28,2027/01/31,,許可,,
018000,fBiz00001765730000000001,福井県,福井市,株式会社TreasureFactory,カブシキガイシャトレジャーファクトリー,① 飲食店営業,移動店舗,福井県小浜市和久里２４―４５―２,,35.492088,135.762779,0770-56-3000,株式会社TreasureFactory,9140001103977,兵庫県明石市大道町１丁目１６―１７,福井県指令若保第21600119号,2021/12/10,2021/12/10,2021/12/10,2026/12/31,,許可,なし,
018000,fBiz00001772870000000004,福井県,福井市,喫茶　茶美,キッサ　チャーミー,① 飲食店営業,喫茶店,福井県大野市蕨生136-6-1,,35.972358,136.547674,0779-66-5138,廣瀨純一,,福井県大野市蕨生第６９号２６番地,0637007,2006/02/23,2021/12/16,2021/12/16,2026/12/31,,許可,通常,
018000,fBiz00001780220000000001,福井県,福井市,遊Viva美浜,アソビバミハマ,① 飲食店営業,臨時営業,福井県三方郡美浜町笹田１５－１,美浜町　北西郷公民館,35.611052,135.901451,0770-32-0317,秋山かおり,,福井県三方郡美浜町新庄２９１－１８－４,福井県指令二保第2150167号,2021/12/08,2021/12/08,2021/12/08,2026/12/31,,許可,1.営業所で行う臨時営業に限る,
018000,fBiz00001781760000000001,福井県,福井市,やまもと,ヤマモト,① 飲食店営業,仕出し,福井県敦賀市金山６８―１０（沢）,,35.625021,136.036599,0770221435,山本裕己,,福井県敦賀市金山６８―１０（沢）,福井県指令二保第2150169号,2021/12/17,2021/12/17,2021/12/17,2028/07/31,,許可, ,
018000,fBiz00001787100000000001,福井県,福井市,セブンイレブン敦賀市野々町店,セブンイレブンツルガイチノノチョウテン,① 飲食店営業,コンビニエンスストア,福井県敦賀市市野々町１丁目９―２―４,,35.631104,136.053825,0770223323,山田大輔,,福井県敦賀市市野々町２丁目８１６,福井県指令二保第2150172号,2021/12/21,2021/12/21,2021/12/07,2027/07/31,,許可,なし,
018000,fBiz00001787580000000001,福井県,福井市,セブン―イレブン敦賀中央町２丁目店,セブンイレブンツルガチュウオウチョウニチョウメテン,① 飲食店営業,コンビニエンスストア,福井県敦賀市中央町２丁目１０―２７,,35.645540,136.053434,0770233788,北山智洋,,福井県敦賀市中央町２丁目１３―２８―２０３　ルナ・ハイツS,福井県指令二保第2150173号,2021/12/21,2021/12/21,2021/12/21,2028/09/30,,許可,なし,
018000,fBiz00001788670000000002,福井県,福井市,Beto CoCo Brewing,ベト　ココ　ブリューイング,① 飲食店営業,露店,福井県あわら市上番５０―２９,,36.207891,136.211356,080-4254-1486,伊藤実男,,福井県あわら市上番５０−２９,坂保2120133号,2021/12/16,2021/12/16,2021/12/16,2026/12/31,,許可,,
018000,fBiz00001788670000000003,福井県,福井市,Beto Coco Brewing,ベトココブリューイング,① 飲食店営業,,福井県あわら市上番50-29,,36.207891,136.211356,,伊藤実男,,福井県あわら市上番５０−２９,坂保第2220018号,2022/03/04,2022/03/04,2022/03/04,2027/03/31,,許可,,
018000,fBiz00001792010000000001,福井県,福井市,セブン・イレブン勝山郡町店,セブン・イレブンカツヤマコオリマチテン,① 飲食店営業,,福井県勝山市郡町３丁目３１２－２,,36.074122,136.495900,0779-88-5516,,,,2130096,2022/01/21,2022/01/21,2022/01/21,2028/10/31,,許可,通常,
018000,fBiz00001806010000000001,福井県,福井市,Ｂｌｕｅ　ｆоｒｅｓｔ　Ｃａｆｅ,ブルーフォレストカフェ,① 飲食店営業,移動店舗(200L),福井県三方上中郡若狭町生倉１８－６－１,(県下一円),35.562573,135.900216,080-6128-9346,岡本研介,,兵庫県神戸市垂水区城が山１丁目１０－３８中,福井県指令二保第2150175号,2021/12/15,2021/12/15,2021/12/15,2026/12/31,,許可,車両番号：神戸 800 ち 3494　,
018000,fBiz00001806360000000001,福井県,福井市,フレッシュバザール小浜店,フレッシュバザールオバマテン,① 飲食店営業,スーパー,福井県小浜市府中８号,,35.494665,135.756456,0770-52-3100,株式会社さとう,5130001041059,京都府福知山市字上紺屋15番地,福井県指令若保第2160121号,2021/12/24,2021/12/24,2021/12/24,2022/01/03,,許可,許可期限は本人の申請のとおりとする。,
018000,fBiz00001806360000000002,福井県,福井市,フレッシュバザール小浜店,フレッシュバザールオバマテン,① 飲食店営業,スーパー,福井県小浜市府中８号麻ヶ瀬１０―１,,35.494665,135.756456,0770-52-3100,株式会社さとう,5130001041059,京都府福知山市字上紺屋15番地,福井県指令若保第2260002号,2022/02/03,2022/02/03,2022/02/03,2202/02/03,,許可,有効期間は本人の申請のとおり。,
018000,fBiz00001812350000000001,福井県,福井市,県民せいきょう　ハーツつるが,ケンミンセイキョウハーツツルガ,① 飲食店営業,臨時営業,福井県敦賀市若葉町１丁目１６１０,,35.634609,136.048014,0770200082,福井県民生活協同組合,1210005000221,福井県福井市開発５丁目１６０３,福井県指令二保第2150181号,2021/12/31,2021/12/31,2021/12/31,2021/12/31,,許可,許可期限については、本人の申請のとおりとする,
018000,fBiz00001812350000000002,福井県,福井市,県民せいきょうハーツつるが,ケンミンセイキョウハーツツルガ,① 飲食店営業,,福井県敦賀市若葉町１丁目１６１０,,35.634609,136.048014,0770-20-0082,福井県民生活協同組合,1210005000221,福井県福井市開発５丁目１６０３,福井県指令二保第2250008号,2022/02/03,2022/02/03,2022/02/03,2022/02/03,,許可,許可期限については、本人の申請のとおりとする,
018000,fBiz00001815900000000002,福井県,福井市,んっちゃん,ンッチャン,① 飲食店営業,露店,福井県敦賀市白銀町１１－５,(県下一円),35.648207,136.071672,080-5102-5879,合同会社N　Foods,6120903003362,大阪府吹田市豊津町５３－１９Ａ,福井県指令二保第2150180号,2021/12/17,2021/12/17,2021/12/17,2026/12/31,,許可,餃子、手羽先に限る。,
018000,fBiz00001828590000000001,福井県,福井市,セブンーイレブン敦賀昭和町1丁目店,セブンイレブンツルガショウワチョウイッチョウメテン,① 飲食店営業,,福井県敦賀市昭和町１丁目１－４５,,35.646383,136.062934,0770-21-1025,小倉敏弘,,福井県敦賀市櫛林１－４－５　パインⅡ２０７号,福井県指令二保第2150179号,2021/12/21,2021/12/21,2021/12/21,2028/09/30,,許可, ,
018000,fBiz00001829210000000001,福井県,福井市,農家のとうふ屋さん,ノウカノトウフヤサン,① 飲食店営業,キッチンカー,福井県大野市蕨生第１３８号２番地,,35.964158,136.562011,0779-66-2218,株式会社　ゆいファーム,4210001017043,福井県大野市蕨生第１３８号２番地,2130101,2022/02/04,2022/02/04,2022/02/04,2027/02/28,,許可,車両番号　福井800さ7802,
018000,fBiz00001834990000000001,福井県,福井市,セブンーイレブン敦賀布田町店,セブンイレブンツルガヌノタチョウテン,① 飲食店営業,コンビニエンスストア,福井県敦賀市津内町６７－１６－１,,35.649812,136.070032,0770-23-0565,竹仲富明,,福井県敦賀市櫛林２－２－５２,福井県指令二保第2150177号,2021/12/21,2021/12/21,2021/12/21,2028/09/30,,許可, ,
018000,fBiz00001838880000000001,福井県,福井市,セブンーイレブン敦賀２７号線店,セブンイレブンニジュウナナゴウセンテン,① 飲食店営業,コンビニエンスストア,福井県敦賀市長沢４９－１０,,35.632726,136.066213,0770-23-5711,松原義継,,福井県福井市御幸２丁目２０－８,福井県指令二保第2150178号,2021/12/21,2021/12/21,2021/12/21,2028/08/31,,許可, ,
018000,fBiz00001846280000000001,福井県,福井市,空,クウ,① 飲食店営業,旅館,福井県敦賀市津内町２丁目１－５,,35.650875,136.071774,0770-22-0315,有限会社つるや旅館,7210002010424,福井県敦賀市津内町２丁目１－５,福井県指令二保第2150182号,2021/12/24,2021/12/24,2021/12/24,2028/09/30,,許可, ,
018000,fBiz00001846330000000001,福井県,福井市,PANTASY　ASIAN　KITCHEN,パンタジー　アジアン　キッチン,① 飲食店営業,インド・ネパール料理,福井県小浜市府中15-18,,35.493692,135.758759,080-3855-5544,土井えり子,,福井県小浜市堀屋敷4-10-3,福井県指令若保第2160122号,2022/01/06,2022/01/06,2022/01/06,2028/11/30,,許可,なし,
018000,fBiz00001847320000000001,福井県,福井市,Ｃａｆｅ＆Ｂａｒ　ｔａｍａ,カフェアンドバータマ,① 飲食店営業,カフェ、バー,福井県敦賀市本町１丁目１０－５,フォト松永ビル１Ｆ,35.653236,136.072818,090-7599-2495,玉村翔平,,福井県敦賀市津内６９－１ー４５（布田町）,福井県指令二保第2150183号,2021/12/24,2021/12/24,2021/12/24,2028/03/31,,許可, ,
018000,fBiz00001857050000000001,福井県,福井市,株式会社スゴイ勝山ファーム,カブシキカイシャスゴイカツヤマファーム,① 飲食店営業,キッチンカー,福井県勝山市滝波町3丁目815,,36.072147,136.491006,,株式会社スゴイ勝山ファーム,5210001018354,福井県勝山市滝波町3丁目815,2230002,2022/01/25,2022/01/25,2022/01/25,2027/01/31,,許可,車両番号　福井480す6131,
018000,fBiz00001859490000000001,福井県,福井市,むった〜のクレープ屋さん,ムッターノクレープヤサン,① 飲食店営業,,福井県勝山市本町1丁目8-5-2,,36.060475,136.495910,0779883030,森かよ子,,福井県勝山市本町1丁目8-5-2,1630006,2016/02/12,2022/01/19,2022/01/19,2027/01/31,,許可,通常,
018000,fBiz00001859490000000002,福井県,福井市,むった〜,ムッター,① 飲食店営業,,福井県勝山市本町1丁目8-5-2,,36.060475,136.495910,0779883030,森かよ子,,福井県勝山市本町1丁目8-5-2,2230009,2022/03/15,2022/03/15,2022/03/15,2027/03/31,,許可,車両番号：福井800す1779,
018000,fBiz00001869580000000001,福井県,福井市,月下美人,ゲッカビジン,① 飲食店営業,社交飲食,福井県敦賀市本町１丁目５―１９,ABCビル１―７,35.651900,136.073889,090-7588-5486,竹中和弘,,福井県敦賀市三島町２丁目３―１７　旭ビル３０２,福井県指令二保第2250001号,2022/01/13,2022/01/13,2022/01/13,2027/03/31,,許可,なし,
018000,fBiz00001891930000000001,福井県,福井市,扇寿司,オウギズシ,① 飲食店営業,飲食店,福井県勝山市元町1丁目14-21,,36.058336,136.502217,0779880808,有限会社扇家,1210002009736,福井県勝山市元町１丁目１４番２１号,0238531,1997/07/07,2022/02/15,2022/02/15,2027/02/28,,許可,通常,
018000,fBiz00001895310000000001,福井県,福井市,スナック　わち,スナック　ワチ,① 飲食店営業,スナック,福井県坂井市丸岡町本町１―４４,,36.151433,136.270195,090-8264-7337,東和美,,福井県坂井市丸岡町寅国１２―８―１３,坂保第2220002号,2022/01/14,2022/01/14,2022/01/14,2027/12/31,,許可,,
018000,fBiz00001895370000000001,福井県,福井市,和火,ワビ,① 飲食店営業,,福井県大野市茜町２０５,,35.971347,136.485735,,,,,2230001,2022/01/28,2022/01/28,2022/01/28,2027/11/30,,許可,通常,
018000,fBiz00001915270000000001,福井県,福井市,離れ,ハナレ,① 飲食店営業,和食店,福井県小浜市大手町５―２０,七福タウン００３,35.496081,135.744972,090-6209-2394,桑原裕明,,福井県小浜市福谷8-38-1,福井県指令若保第2160120号,2021/12/24,2021/12/24,2021/12/24,2027/02/28,,許可,なし,
018000,fBiz00001921180000000001,福井県,福井市,平谷屋,ヒラタニヤ,① 飲食店営業,露店,福井県敦賀市県下一円,,35.632526,136.067842,090-4291-8168,平谷昇,,奈良県奈良市針町３２３３　メイブルーム都祁１０２,福井県指令二保第2250003号,2022/01/20,2022/01/20,2022/01/20,2027/01/31,,許可,からあげ、焼きそばに限る,
018000,fBiz00001930760000000001,福井県,福井市,ハーツわかさ,ハーツワカサ,① 飲食店営業,スーパー,福井県小浜市遠敷９丁目５０１番地,,35.484013,135.773796,0770-56-0382,福井県民生活協同組合,1210005000221,福井県福井市開発5丁目1603号,福井県指令若保第2260004号,2022/02/02,2022/02/02,2022/02/02,2022/02/03,,許可,有効期限は本人の申請のとおり。,
018000,fBiz00001939210000000001,福井県,福井市,県民せいきょうハーツ三方五湖,ケンミンセイキョウハーツミカタゴコ,① 飲食店営業,,福井県三方上中郡若狭町鳥浜４９―６８,,35.551495,135.907125,0770-45-3820,福井県民生活協同組合,1210005000221,福井県福井市開発５丁目１６０３,福井県指令二保第2250008号,2022/02/03,2022/02/03,2022/02/03,2022/02/03,,許可,許可期限については、本人の申請のとおりとする,
018000,fBiz00001960460000000001,福井県,福井市,2分音符,ニブオンプ,① 飲食店営業,カラオケ店,福井県大飯郡おおい町本郷１４５―３３,,35.481482,135.621258,0770-59-2201,堀口尚子,,福井県大飯郡おおい町本郷１４５―３３,福井県指令若保第2260007号,2022/02/08,2022/02/08,2022/02/08,2028/10/31,,許可,,
018000,fBiz00001986360000000001,福井県,福井市,プラチナ,プラチナ,① 飲食店営業,ラウンジ,福井県敦賀市清水町１丁目２０－１７,ヒメビル１Ｆ奥,35.652667,136.075032,0770-20-0026,平口めぐみ,,福井県敦賀市清水町２丁目１８－２１,福井県指令二保第2150189号,2022/02/04,2022/02/04,2022/02/04,2027/03/31,,許可, ,
018000,fBiz00001990380000000001,福井県,福井市,サバラン,サバラン,① 飲食店営業,,福井県勝山市元町１丁目６－１６,2F,36.062300,136.501898,0779-87-1271,合資会社　太陽製パン工場,5210003000500,福井県勝山市沢町２丁目１０－２０,0238525,1976/08/27,2022/02/15,2022/02/15,2027/02/28,,許可,通常,
018000,fBiz00002001720000000001,福井県,福井市,餃子の禄縁,ギョウザノロクエン,① 飲食店営業,中華,福井県三方上中郡若狭町能登野33-2-2,,35.516192,135.906457,08048452815,株式会社MKフーズ,9180001135868,愛知県名古屋市港区寛政町7-19,福井県指令二保第2250017号,2022/02/22,2022/02/22,2022/02/22,2028/11/30,,許可, ,
018000,fBiz00002006930000000005,福井県,福井市,たこ焼き名物　なっちゃんち,タコヤキメイブツ　ナッチャンチ,① 飲食店営業,飲食店,福井県勝山市元町1-7-28,,36.060999,136.502457,09075973134,大森奈津江,,福井県勝山市長山町1-7-3,1630084,2016/09/30,2022/02/15,2022/02/15,2027/02/28,,許可,通常,
018000,fBiz00002015620000000001,福井県,福井市,金四郎,キンシロウ,① 飲食店営業,喫茶店,福井県小浜市下田４１―１７,,35.427556,135.670537,090-7744-7770,吉村順子,,福井県小浜市山手１丁目４－６,福井県指令若保第2260008号,2022/03/01,2022/03/01,2022/03/01,2027/11/30,,許可,なし,
018000,fBiz00002049780000000003,福井県,福井市,美浜町健康楽膳拠点施設こるぱ,ミハマチョウケンコウラクゼンキョテンシセツコルパ,① 飲食店営業,レストラン,福井県三方郡美浜町久々子３４－２－１,,35.602012,135.911099,0770-32-2155,三方五湖DMO株式会社,7210001017965,福井県三方郡美浜町松原３５―１６―２,福井県指令二保第2250038号,2022/03/24,2022/03/24,2022/03/24,2028/10/31,,許可, ,
018000,fBiz00002063540000000001,福井県,福井市,三国港市場食堂,ミクニミナトイチバショクドウ,① 飲食店営業,食堂,福井県坂井市三国町宿一丁目17番33号,,36.219671,136.140453,0776-50-3923,,,,2220020,2022/03/11,2022/03/11,2022/03/11,2027/07/31,,許可,,
018000,fBiz00002063880000000001,福井県,福井市,おやま食堂,オヤマショクドウ,① 飲食店営業,食堂,福井県敦賀市疋田１１―１７,,35.603023,136.098315,08015023963,澤村梨恵,,福井県敦賀市刀根２７―３５,福井県指令二保第2250020号,2022/03/04,2022/03/04,2022/03/04,2028/07/31,,許可, ,
018000,fBiz00002065310000000001,福井県,福井市,宅配クック１２３　敦賀店,タクハイクックワンツースリーツルガテン,① 飲食店営業,宅配弁当,福井県敦賀市昭和町２丁目２０－１４,,35.638608,136.058593,0770-23-4123,株式会社フジショク,9210001010729,福井県敦賀市昭和町２丁目２０－１４,福井県指令二保第2250010号,2022/02/10,2022/02/10,2022/02/10,2028/09/30,,許可, ,
018000,fBiz00002065360000000002,福井県,福井市,レストラン＆カフェRainbow,レストランアンドカフェレインボー,① 飲食店営業,,福井県三方郡美浜町日向７５―字高木２,第１駐車場,35.620051,135.854083,0770-45-2678,株式会社レインボーライン,2210001010958,福井県三方上中郡若狭町気山１８―２―２,福井県指令二保第2250015号,2022/03/03,2022/03/03,2022/03/03,2028/10/31,,許可,なし,
018000,fBiz00002072480000000002,福井県,福井市,青春食堂,セイシュンショクドウ,① 飲食店営業,食堂,福井県敦賀市津内１丁目５―２１,,35.653067,136.070610,090-1632-7870,高矢陽子,,福井県敦賀市東洋町８―１―１０１,福井県指令二保第2250012号,2022/02/18,2022/02/18,2022/02/18,2027/09/30,,許可,なし,
018000,fBiz00002075610000000001,福井県,福井市,関西電力　ハイツ青葉　第三青葉単身寮,カンサイデンリョク　ハイツアオバ　ダイサンアオバタンシンリョウ,① 飲食店営業,食堂,福井県大飯郡高浜町安土２―１―２,ハイツ青葉  第三青葉単身寮,35.494106,135.582669,080-1416-8797,鈴木正行,,福井県大飯郡高浜町安土２―１―２　ハイツ青葉　第三青葉単身寮,福井県指令若保第2260009号,2022/03/23,2022/03/23,2022/03/23,2028/06/30,,許可,,
018000,fBiz00002088720000000001,福井県,福井市,フェスティーボ,フェスティーボ,① 飲食店営業,,福井県勝山市片瀬2丁目114番地,勝山ニューホテル１F,36.050264,136.514696,,株式会社リオ・ホテルズ関越,9110001030844,新潟県新潟市中央区弁天1丁目2番地４号,2230006,2022/03/15,2022/03/15,2022/03/15,2028/09/30,,許可,通常,
018000,fBiz00002088720000000002,福井県,福井市,ラウンジ_シャルム,ラウンジ　シャルム,① 飲食店営業,,福井県勝山市片瀬町2丁目11４番地,勝山ニューホテル１F,36.050264,136.514696,,株式会社リオ・ホテルズ関越,9110001030844,新潟県新潟市中央区弁天1丁目2番地４号,2230005,2022/03/15,2022/03/15,2022/03/15,2027/09/30,,許可,通常,
018000,fBiz00002092190000000001,福井県,福井市,関西電力　和田集会所,カンサイデンリョク　ワダシュウカイショ,① 飲食店営業,食堂,福井県大飯郡高浜町安土２―１―２,,35.494106,135.582669,070-2622-0466,石川正三,,福井県小浜市生守４１―３４―２　市営住宅1号棟１０２号,福井県指令若保第2260010号,2022/03/23,2022/03/23,2022/03/23,2028/06/30,,許可,,
018000,fBiz00002117200000000001,福井県,福井市,関西電寮　第四本郷寮,カンサイデンリョク　ダイヨンホンゴウリョウ,① 飲食店営業,食堂,福井県大飯郡おおい町本郷５１―１,,35.470050,135.623502,0770-77-1130,岡本昌三,,福井県大飯郡高浜町和田１３７―５―６,福井県指令若保第2260011号,2022/03/23,2022/03/23,2022/03/23,2028/10/31,,許可,,
018000,fBiz00002121110000000003,福井県,福井市,石川商店,イシカワショウテン,① 飲食店営業,キッチンカー,福井県勝山市北郷町東野２８－１９,,36.083841,136.430394,0779-89-1842,,,,2230007,2022/03/08,2022/03/08,2022/03/08,2027/03/31,,許可,車両番号：福井880あ1291,
018000,fBiz00002130170000000001,福井県,福井市,魚処　定吉,サカナドコロ　サダヨシ,① 飲食店営業,,福井県敦賀市蓬莱町１７－２５,漁協福祉会館２Ｆ,35.656784,136.066474,0770-23-1871,中川伊砂子,,福井県敦賀市三島３２－１０　市住１－１０５,福井県指令二保第2250018号,2022/03/04,2022/03/04,2022/03/04,2028/02/28,,許可, ,
018000,fBiz00002131960000000001,福井県,福井市,キッチン・うまサン,キッチンウマサン,① 飲食店営業,弁当販売,福井県三方郡美浜町河原市５１－５－３０,,35.605333,135.939927,090-5172-7631,合同会社うまの商店,1210003001444,福井県三方郡美浜町佐野４５－２３,福井県指令二保第2250019号,2022/03/04,2022/03/04,2022/03/04,2028/10/31,,許可, ,
018000,fBiz00002135570000000001,福井県,福井市,幸甚縁,コウジンエン,① 飲食店営業,移動店舗,福井県小浜市木崎１３―６,,35.486999,135.760465,080-9479-8500,藤原明広,,兵庫県丹波篠山市殿町６６８―１,福井県指令若保第2260012号,2022/03/14,2022/03/14,2022/03/14,2027/03/31,,許可,,
018000,fBiz00002135990000000001,福井県,福井市,Cafe　Amelia,カフェ　アメリア,① 飲食店営業,,福井県勝山市元町１６－３５,,36.055694,136.502867,,,,,2230012,2022/03/25,2022/03/25,2022/03/25,2027/03/31,,許可,車両番号：福井480す7255,
018000,fBiz00002136890000000001,福井県,福井市,ＬＯＵＮＧＥ　ＶＡＬ,ラウンジバル,① 飲食店営業,,福井県敦賀市清水町１丁目２０―１５,エポック２１ビル２階,35.652823,136.075305,070-4348-8314,北尾名穂,,福井県敦賀市野神４０―２３６　コーポ・スエルテ１０１,福井県指令二保第2250024号,2022/03/04,2022/03/04,2022/03/04,2027/03/31,,許可,なし,
018000,fBiz00002138110000000001,福井県,福井市,若狭フィッシャーマンズワーフ,ワカサフィッシャーマンズワーフ,① 飲食店営業,露店,福井県小浜市川崎１―３―２,,35.500175,135.740179,0770-52-3111,株式会社そともめぐり,6210001014195,福井県小浜市川崎１―３―２,福井県指令若保第2260013号,2022/03/14,2022/03/14,2022/03/14,2027/03/31,,許可,ななちゃん焼き（たい焼き）、お好み焼きに限る,
018000,fBiz00002139690000000001,福井県,福井市,ＣＲＥＡ,クレア,① 飲食店営業,,福井県敦賀市本町１丁目５―２８,ラ・エスペランス３　２０３号室,35.651987,136.074661,080-6843-0223,和田亜美,,滋賀県長浜市神照町４８６―１１　アメニティハウスT・A１０１号室,福井県指令二保第2250023号,2022/03/04,2022/03/04,2022/03/04,2027/03/31,,許可,なし,
018000,fBiz00002140400000000001,福井県,福井市,カラオケ　ＣＬＵＢ　ＤＡＭ　Ｒｅｓｏｒｔ　敦賀店,カラオケクラブダムリゾートツルガテン,① 飲食店営業,カラオケ,福井県敦賀市木崎１３―１４―１１,,35.639391,136.047519,0770-47-6277,株式会社ＦＢＣオンパイ,9210001000556,福井県福井市文京２丁目６―２７,福井県指令二保第2250022号,2022/03/15,2022/03/15,2022/03/15,2028/08/31,,許可, ,
018000,fBiz00002146680000000001,福井県,福井市,ふるさと茶屋　トモルカフェ,フルサトチャヤ　トモルカフェ,① 飲食店営業,,福井県大野市稲郷第３０号４番地５,,35.951240,136.523482,0779-64-4214,,,,2230008,2022/03/25,2022/03/25,2022/03/25,2028/09/30,,許可,通常,
018000,fBiz00002151860000000001,福井県,福井市,けいたこ,ケイタコ,① 飲食店営業,キッチンカー,福井県勝山市片瀬町１－４０６－１１３,,36.053592,136.515045,,,,,2230010,2022/03/15,2022/03/15,2022/03/15,2027/03/31,,許可,通常,
018000,fBiz00002157200000000001,福井県,福井市,イフスコヘルスケア株式会社　もみじの里厨房　3295事業所,モミジノサトチュウボウ,① 飲食店営業,施設給食,福井県小浜市東勢１１号３番,,35.475028,135.711839,070-7820-7441,イフスコヘルスケア株式会社,9120001099706,大阪府大阪市福島区福島７丁目１５番２６号,福井県指令若保第2260014号,2022/03/23,2022/03/23,2022/03/23,2028/11/30,,許可,,
018000,fBiz00002164100000000001,福井県,福井市,おばんざい・おふくろの味　零,オバンザイ・オフクロノアジ　ゼロ,① 飲食店営業,居酒屋,福井県小浜市駅前町２―５,サワトウビル　２F,35.492464,135.744806,0770-53-1150,株式会社ZERO,3210001018629,福井県小浜市駅前町８―２２,福井県指令若保第2260016号,2022/03/28,2022/03/28,2022/03/28,2027/03/31,,許可,,
018000,fBiz00002164100000000002,福井県,福井市,Bar & Dining ZERO,バーアンドダイニング　ゼロ,① 飲食店営業,ダイニングバー,福井県小浜市小浜酒井1-63 ,村上ビル２F,35.494415,135.744023,0770-52-0887,株式会社ZERO,3210001018629,福井県小浜市駅前町８―２２,福井県指令若保第2260017号,2022/03/28,2022/03/28,2022/03/28,2028/03/31,,許可,,
018000,fBiz00002172050000000001,福井県,福井市,はなまる弁当,ハナマルベントウ,① 飲食店営業,店舗販売、宅配,福井県勝山市沢町２丁目7-27,ハッピー商店街,36.065299,136.503051,0779-88-6071,佐藤茂美,,福井県勝山市北郷町伊知地５３－５１,2230013,2022/03/25,2022/03/25,2022/03/25,2027/03/31,,許可,通常,
018000,fBiz00002190530000000001,福井県,福井市,１５１・Ａ,イチゴーイチエー,① 飲食店営業,スナック,福井県敦賀市本町１丁目２－１３,Ｓビル　１Ｆ,35.653087,136.074746,0770-47-6911,池本委加,,福井県敦賀市山泉７３－１１１－２,福井県指令二保第2250029号,2022/03/16,2022/03/16,2022/03/16,2027/03/31,,許可, ,
018000,fBiz00002192890000000001,福井県,福井市,福井県立三方青年の家,フクイケンリツミカタセイネンノイエ,① 飲食店営業,食堂,福井県三方上中郡若狭町鳥浜１２２－２７－１,,35.559463,135.893280,0770-45-0229,田辺盛昭,,福井県三方上中郡若狭町田井119-22,福井県指令二保第2250035号,2022/03/18,2022/03/18,2022/03/18,2028/11/30,,許可,,
018000,fBiz00002197220000000001,福井県,福井市,Naka House,ナカ　ハウス,① 飲食店営業,キッチンカー,福井県勝山市郡町２丁目１－３０,,36.070553,136.501600,,,,,2230014,2022/03/25,2022/03/25,2022/03/25,2027/03/31,,許可,車両番号：福井480す8186,
018000,fBiz00002201540000000001,福井県,福井市,道の駅　シーサイド高浜,ミチノエキ　シーサイドタカハマ,① 飲食店営業,食堂,福井県大飯郡高浜町下車持４６―１０,,35.489015,135.596098,0770-72-8400,中日本エクシス株式会社,3180001056418,愛知県名古屋市中区栄２―３―１,福井県指令若保第2260020号,2022/03/28,2022/03/28,2022/03/28,2028/06/30,,許可,,
018000,fBiz00002210440000000001,福井県,福井市,白山平泉寺どじょう,ハクサンヘイセンジドジョウ,① 飲食店営業,キッチンカー,福井県勝山市平泉寺町平泉寺１１２－１０－２,,36.040644,136.530931,0779-64-5710,合同会社グループロテク,7210003001166,福井県勝山市平泉寺町平泉寺１１２－１０－２,2230015,2022/03/29,2022/03/29,2022/03/29,2027/03/31,,許可,車両番号：福井800る320（被牽引車）福井334ふ13（牽引車）,
018000,fBiz00002213440000000001,福井県,福井市,千束そば,チグサソバ,① 飲食店営業,そば、うどん,福井県敦賀市清水町１丁目２０－８,,35.652623,136.075361,0770-23-1182,小坂信行,,福井県敦賀市清水町１丁目２－6,福井県指令二保第2250036号,2022/03/18,2022/03/18,2022/03/18,2028/03/31,,許可, ,
018000,fBiz00002226520000000001,福井県,福井市,Ｍ’ｓ,エムズ,① 飲食店営業,スナック,福井県敦賀市清水町１丁目２１－１９,ＴＡＰ一番館　１階,35.652410,136.075291,,大道政志,,福井県敦賀市三島町１丁目４－２８－２,福井県指令二保第2250041号,2022/03/29,2022/03/29,2022/03/29,2028/03/31,,許可, ,
018000,fBiz00002229490000000001,福井県,福井市,Re:bar,リバー,① 飲食店営業,BAR,福井県敦賀市清水町１丁目２１―１４,FUGENビル１　１F奥,35.652306,136.075007,0770-24-0153,𠮷田治樹,,滋賀県長浜市木之本町川合３１７,福井県指令二保第2250042号,2022/03/30,2022/03/30,2022/03/30,2027/03/31,,許可,なし,
018000,fBiz00002231440000000001,福井県,福井市,湖南ちゃんぽん,コナンチャンポン,① 飲食店営業,移動販売100L,福井県敦賀市県下一円,,35.639545,136.047517,,安田秀行,,滋賀県東近江市沖野１－４ー１２　グランパレスドリーム４１０,福井県指令二保第2250043号,2022/03/30,2022/03/30,2022/03/30,2027/03/31,,許可,車両番号：滋賀４８５　む　１０１０,
